State,County,Population,Total Area (km),Latitude,Longitude
AL,Autauga,54571,1565.358,32.536382,-86.64449
AL,Baldwin,182265,5250.712,30.659218,-87.746067
AL,Barbour,27457,2342.684,31.87067,-85.405456
AL,Bibb,22915,1621.77,33.015893,-87.127148
AL,Blount,57322,1685.119,33.977448,-86.567246
AL,Bullock,10914,1619.113,32.101759,-85.717261
AL,Butler,20947,2014.704,31.751667,-86.681969
AL,Calhoun,118572,1585.814,33.771706,-85.822513
AL,Chambers,34215,1562.057,32.917943,-85.391812
AL,Cherokee,25989,1553.935,34.069515,-85.654242
AL,Chilton,43643,1815.07,32.85406,-86.726628
AL,Choctaw,13859,2385.014,31.991008,-88.248887
AL,Clarke,25833,3244.152,31.685521,-87.818624
AL,Clay,13932,1569.537,33.267809,-85.862051
AL,Cleburne,14972,1453.018,33.671981,-85.516109
AL,Coffee,49948,1762.474,31.402183,-85.989201
AL,Colbert,54428,1611.308,34.703112,-87.801457
AL,Conecuh,13228,2208.54,31.428293,-86.992029
AL,Coosa,11539,1725.838,32.931445,-86.243482
AL,Covington,37765,2703.396,31.243987,-86.448721
AL,Crenshaw,13906,1582.264,31.732826,-86.319222
AL,Cullman,80406,1955.495,34.131923,-86.869267
AL,Dale,50251,1457.388,31.430654,-85.609476
AL,Dallas,43820,2573.942,32.33354,-87.114356
AL,DeKalb,71109,2016.786,34.460929,-85.803992
AL,Elmore,79303,1701.73,32.597229,-86.142739
AL,Escambia,38319,2468.62,31.121748,-87.168429
AL,Etowah,104430,1420.942,34.047638,-86.03442
AL,Fayette,17241,1630.024,33.732249,-87.752049
AL,Franklin,31704,1674.486,34.441988,-87.842815
AL,Geneva,26790,1499.476,31.090866,-85.824346
AL,Greene,9045,1709.238,32.844497,-87.964201
AL,Hale,15760,1700.33,32.752796,-87.623061
AL,Henry,17302,1471.913,31.516978,-85.239971
AL,Houston,101547,1506.478,31.158193,-85.296398
AL,Jackson,53227,2918.322,34.763522,-85.9774
AL,Jefferson,658466,2910.667,33.553444,-86.896536
AL,Lamar,14564,1568.145,33.787085,-88.087431
AL,Lauderdale,92709,1867.355,34.904122,-87.650997
AL,Lawrence,34339,1857.535,34.529776,-87.321865
AL,Lee,140247,1595.041,32.604064,-85.353048
AL,Limestone,82782,1572.61,34.810239,-86.9814
AL,Lowndes,11299,1877.923,32.147888,-86.650586
AL,Macon,21452,1588.199,32.387027,-85.692887
AL,Madison,334811,2104.888,34.764238,-86.55108
AL,Marengo,21027,2545.107,32.247591,-87.791091
AL,Marion,30776,1925.84,34.138219,-87.881551
AL,Marshall,93019,1614.026,34.309564,-86.321668
AL,Mobile,412992,4257.974,30.684573,-88.196568
AL,Monroe,23068,2679.128,31.580332,-87.383266
AL,Montgomery,229363,2071.762,32.203651,-86.203831
AL,Morgan,119490,1551.541,34.454484,-86.846402
AL,Perry,10591,1874.839,32.639005,-87.293827
AL,Pickens,19746,2305.415,33.296809,-88.096878
AL,Pike,32899,1743.078,31.798726,-85.941997
AL,Randolph,22913,1512.902,33.296475,-85.464068
AL,Russell,52947,1676.219,32.289811,-85.18698
AL,St. Clair,83593,1692.919,33.712963,-86.315663
AL,Shelby,195085,2096.661,33.262937,-86.678104
AL,Sumter,13763,2365.494,32.597481,-88.200057
AL,Talladega,82291,1969.184,33.369277,-86.175805
AL,Tallapoosa,41616,1984.589,32.863369,-85.799553
AL,Tuscaloosa,194656,3499.725,33.290202,-87.52286
AL,Walker,67023,2085.441,33.791571,-87.301092
AL,Washington,17581,2819.373,31.406974,-88.202078
AL,Wilcox,11670,2350.185,31.99033,-87.302205
AL,Winston,24484,1636.531,34.155888,-87.364147
AK,Aleutians East,3141,38875.358,55.243722,-161.950749
AK,Aleutians West [4],5561,36561.406,51.959447,178.338813
AK,Anchorage,291826,5078.97,61.177549,-149.274354
AK,Bethel [4],17013,117855.346,60.928916,-160.15335
AK,Bristol Bay,997,2298.777,58.731373,-156.986612
AK,Denali,1826,33092.069,63.682732,-150.026719
AK,Dillingham [4],4847,54170.136,59.824816,-158.602233
AK,Fairbanks North Star,97581,19279.063,64.690832,-146.599867
AK,Haines,2508,7059.022,59.099905,-135.578102
AK,Hoonah-Angoon [4],2150,28267.524,58.076434,-135.1851
AK,Juneau,31275,8427.544,58.3727,-134.178781
AK,Kenai Peninsula,55400,64108.206,60.366373,-152.321973
AK,Ketchikan Gateway,13477,17232.647,55.449938,-131.106685
AK,Kodiak Island,13592,31136.394,57.553611,-153.630911
AK,Lake and Peninsula,1631,85268.877,58.205065,-156.705188
AK,Matanuska-Susitna,88995,65416.898,62.182174,-149.407974
AK,Nome [4],9492,73238.698,64.783686,-164.188912
AK,North Slope,9430,245521.234,69.449343,-153.47283
AK,Northwest Arctic,7523,105539.253,67.005066,-160.021086
AK,Petersburg [4],3815,14721.662,56.639612,-133.527996
AK,Prince of Wales-Hyder [4],5559,19899.612,55.415683,-132.875734
AK,Sitka,8881,12461.548,57.142509,-135.332624
AK,Skagway,968,1201.847,59.575097,-135.335418
AK,Southeast Fairbanks [4],7029,64903.711,63.864997,-143.218628
AK,Valdez-Cordova [4],9636,104480.567,61.34984,-145.023141
AK,Wade Hampton [4],7459,50952.705,62.283174,-163.19095
AK,Wrangell,2369,8966.687,56.279121,-132.040326
AK,Yakutat,662,24508.712,59.999083,-140.239593
AK,Yukon-Koyukuk [4],5588,382812.22,65.376131,-151.576855
AZ,Apache,71518,29055.62,35.385845,-109.493747
AZ,Cochise,131346,16106.089,31.881793,-109.75412
AZ,Coconino,134421,48332.653,35.829692,-111.773728
AZ,Gila,53597,12420.101,33.789618,-110.81187
AZ,Graham,37220,12020.305,32.931828,-109.87831
AZ,Greenlee,8437,4787.419,33.238872,-109.242323
AZ,La Paz,20489,11690.566,33.727625,-114.038793
AZ,Maricopa,3817117,23891.056,33.346541,-112.495534
AZ,Mohave,200186,34862.918,35.717705,-113.749689
AZ,Navajo,107449,25795.551,35.390934,-110.320908
AZ,Pima,980263,23799.649,32.128237,-111.783018
AZ,Pinal,375770,13919.201,32.91891,-111.367257
AZ,Santa Cruz,47420,3206.687,31.525904,-110.84519
AZ,Yavapai,211033,21051.267,34.630044,-112.573745
AZ,Yuma,195751,14294.428,32.773942,-113.910905
AR,Arkansas,19019,2677.398,34.289574,-91.376547
AR,Ashley,21853,2435.953,33.190835,-91.772267
AR,Baxter,41513,1519.585,36.28071,-92.330438
AR,Benton,221339,2289.307,36.337825,-94.256187
AR,Boone,36903,1558.737,36.304308,-93.079204
AR,Bradley,11508,1691.047,33.463819,-92.168164
AR,Calhoun,5368,1637.943,33.56046,-92.513879
AR,Carroll,27446,1654.484,36.337774,-93.541663
AR,Chicot,11800,1789.132,33.267139,-91.297158
AR,Clark,22995,2286.518,34.053312,-93.176205
AR,Clay,16083,1661.312,36.367302,-90.418704
AR,Cleburne,25970,1533.071,35.566288,-92.059974
AR,Cleveland,8689,1550.752,33.893201,-92.188714
AR,Columbia,24552,1985.88,33.21507,-93.226901
AR,Conway,21273,1467.662,35.265702,-92.689248
AR,Craighead,96443,1845.818,35.828268,-90.630411
AR,Crawford,61948,1564.981,35.583041,-94.236224
AR,Crittenden,50902,1648.211,35.211878,-90.315331
AR,Cross,17870,1611.767,35.291259,-90.773894
AR,Dallas,8116,1730.387,33.967823,-92.653999
AR,Desha,13008,2122.563,33.828748,-91.244427
AR,Drew,18509,2164.352,33.587242,-91.722778
AR,Faulkner,113237,1719.94,35.146356,-92.324654
AR,Franklin,18125,1604.866,35.508573,-93.887672
AR,Fulton,12245,1606.642,36.383443,-91.819239
AR,Garland,96024,1902.659,34.578861,-93.146915
AR,Grant,17853,1639.281,34.288063,-92.423984
AR,Greene,42090,1501.06,36.119922,-90.565241
AR,Hempstead,22609,1919.64,33.728611,-93.665809
AR,Hot Spring,32923,1611.42,34.315177,-92.944147
AR,Howard,13789,1541.856,34.083179,-93.990988
AR,Independence,36647,1998.223,35.737499,-91.559942
AR,Izard,13696,1512.599,36.094879,-91.913625
AR,Jackson,17997,1661.481,35.596605,-91.223178
AR,Jefferson,77435,2366.668,34.277696,-91.930701
AR,Johnson,25540,1768.299,35.573359,-93.466322
AR,Lafayette,7645,1411.748,33.24066,-93.611643
AR,Lawrence,17415,1534.158,36.041098,-91.101153
AR,Lee,10424,1604.503,34.77975,-90.779288
AR,Lincoln,14134,1481.952,33.957665,-91.727624
AR,Little River,13171,1462.737,33.699497,-94.229774
AR,Logan,22353,1894.731,35.21855,-93.720563
AR,Lonoke,68356,2079.347,34.755114,-91.894132
AR,Madison,15717,2168.028,36.012545,-93.724053
AR,Marion,16653,1658.42,36.266656,-92.678588
AR,Miller,43462,1651.504,33.305505,-93.901509
AR,Mississippi,46480,2382.302,35.766943,-90.052209
AR,Monroe,8149,1609.154,34.679513,-91.203314
AR,Montgomery,9487,2072.74,34.545652,-93.664147
AR,Nevada,8997,1607.447,33.666699,-93.305072
AR,Newton,8330,2132.042,35.910063,-93.215084
AR,Ouachita,26120,1915.95,33.591158,-92.878418
AR,Perry,10445,1451.775,34.946363,-92.926877
AR,Phillips,21757,1883.814,34.425842,-90.848386
AR,Pike,11291,1590.588,34.158191,-93.658659
AR,Poinsett,24583,1977.74,35.568981,-90.680595
AR,Polk,20662,2233.765,34.490915,-94.230884
AR,Pope,61754,2151.697,35.455297,-93.031535
AR,Prairie,8715,1749.833,34.828225,-91.5572
AR,Pulaski,382748,2091.839,34.773988,-92.316515
AR,Randolph,17969,1699.134,36.341299,-91.028441
AR,St. Francis,28258,1664.099,35.014438,-90.742199
AR,Saline,107118,1891.96,34.648525,-92.674463
AR,Scott,11233,2325.999,34.858869,-94.063641
AR,Searcy,8195,1731.434,35.90966,-92.699351
AR,Sebastian,125744,1414.549,35.196981,-94.274989
AR,Sevier,17058,1505.501,33.994608,-94.24329
AR,Sharp,17264,1570.662,36.173399,-91.471069
AR,Stone,12394,1578.42,35.856989,-92.140494
AR,Union,41639,2732.954,33.168219,-92.598145
AR,Van Buren,17295,1875.888,35.582959,-92.515977
AR,Washington,203065,2466.729,35.971209,-94.218417
AR,White,77076,2699.144,35.254722,-91.753158
AR,Woodruff,7260,1538.489,35.189071,-91.244418
AR,Yell,22185,2457.528,34.997713,-93.408303
CA,Alameda,1510271,2127.231,37.648081,-121.913304
CA,Alpine,1175,1924.829,38.61761,-119.798999
CA,Amador,38091,1569.42,38.44355,-120.653856
CA,Butte,220000,4343.749,39.665959,-121.601919
CA,Calaveras,45578,2685.63,38.187844,-120.555115
CA,Colusa,21419,2994.96,39.177739,-122.237563
CA,Contra Costa,1049025,2081.754,37.919479,-121.951543
CA,Del Norte,28610,3185.02,41.749903,-123.980998
CA,El Dorado,181058,4626.64,38.785532,-120.534398
CA,Fresno,930450,15568.942,36.761006,-119.655019
CA,Glenn,28122,3436.857,39.602546,-122.4017
CA,Humboldt,134623,10495.301,40.706673,-123.925818
CA,Imperial,174528,11607.6,33.040816,-115.355395
CA,Inyo,18546,26487.562,36.561977,-117.403927
CA,Kern,839631,21141.142,35.346629,-118.729506
CA,Kings,152982,3604.051,36.072478,-119.81553
CA,Lake,64665,3443.19,39.094802,-122.746757
CA,Lassen,34895,12225.053,40.721089,-120.629931
CA,Los Angeles,9818605,12304.883,34.196398,-118.261862
CA,Madera,150865,5576.94,37.210039,-119.749852
CA,Marin,252409,2145.006,38.051817,-122.745974
CA,Mariposa,18251,3788.688,37.570034,-119.91286
CA,Mendocino,87841,10044.339,39.432388,-123.442881
CA,Merced,255793,5124.315,37.194806,-120.722802
CA,Modoc,9686,10886.752,41.592919,-120.71837
CA,Mono,14202,8111.523,37.915836,-118.875167
CA,Monterey,415057,9767.417,36.240107,-121.315573
CA,Napa,136484,2042.417,38.507351,-122.325995
CA,Nevada,98764,2522.132,39.295191,-120.773446
CA,Orange,3010232,2455.478,33.675687,-117.777207
CA,Placer,348432,3891.341,39.062032,-120.722718
CA,Plumas,20007,6768.746,39.99517,-120.829516
CA,Riverside,2189641,18915.77,33.729828,-116.002239
CA,Sacramento,1418788,2574.493,38.450011,-121.340441
CA,San Benito,55269,3601.297,36.610702,-121.085296
CA,San Bernardino,2035210,52071.258,34.85722,-116.181197
CA,San Diego,3095313,11721.469,33.023604,-116.776117
CA,San Francisco,805235,600.59,37.727239,-123.032229
CA,San Joaquin,685306,3694.615,37.935034,-121.272237
CA,San Luis Obispo,269637,9364.223,35.385227,-120.44754
CA,San Mateo,718451,1919.076,37.414664,-122.371542
CA,Santa Barbara,423895,9813.667,34.537378,-120.038485
CA,Santa Clara,1781642,3377.518,37.220777,-121.690622
CA,Santa Cruz,262382,1572.555,37.012488,-122.007205
CA,Shasta,177223,9964.778,40.760522,-122.04355
CA,Sierra,3240,2492.113,39.576925,-120.521993
CA,Siskiyou,44900,16439.542,41.587986,-122.533287
CA,Solano,413344,2347.027,38.267226,-121.939594
CA,Sonoma,483878,4578.96,38.532574,-122.945194
CA,Stanislaus,514453,3923.02,37.562384,-121.002656
CA,Sutter,94737,1575.983,39.035257,-121.702758
CA,Tehama,63463,7671.986,40.126156,-122.232276
CA,Trinity,13786,8307.638,40.647724,-123.114404
CA,Tulare,442179,12532.05,36.230453,-118.780542
CA,Tuolumne,55365,5890.746,38.021451,-119.964708
CA,Ventura,823318,5719.684,34.358742,-119.133143
CA,Yolo,200849,2651.002,38.679268,-121.903178
CA,Yuba,72155,1667.453,39.270026,-121.34428
CO,Adams,441603,3066.278,39.874325,-104.331872
CO,Alamosa,15445,1873.445,37.568442,-105.788041
CO,Arapahoe,572003,2086.074,39.644632,-104.331733
CO,Archuleta,12084,3510.765,37.202395,-107.050863
CO,Baca,3788,6623.476,37.303144,-102.535457
CO,Bent,6499,3991.386,37.931891,-103.077584
CO,Boulder,294567,1917.549,40.094826,-105.398382
CO,Broomfield,55889,87.024,39.953383,-105.052125
CO,Chaffee,17809,2628.716,38.738246,-106.316972
CO,Cheyenne,1836,4613.879,38.835387,-102.604585
CO,Clear Creek,9088,1026.913,39.689403,-105.670791
CO,Conejos,8256,3343.561,37.213407,-106.176447
CO,Costilla,3524,3186.619,37.277547,-105.42894
CO,Crowley,5823,2072.842,38.321956,-103.787562
CO,Custer,4255,1916.396,38.101994,-105.373515
CO,Delta,30952,2974.858,38.861756,-107.864757
CO,Denver,600158,400.494,39.761849,-104.880625
CO,Dolores,2064,2766.366,37.747602,-108.530383
CO,Douglas,285465,2183.022,39.326435,-104.926199
CO,Eagle,52197,4381.718,39.630638,-106.692944
CO,Elbert,23086,4794.113,39.310817,-104.117928
CO,El Paso,622263,5515.501,38.827383,-104.527472
CO,Fremont,46824,3972.863,38.455658,-105.421438
CO,Garfield,56389,7655.584,39.599352,-107.90978
CO,Gilpin,5441,389.171,39.861082,-105.528947
CO,Grand,14843,4842.222,40.123289,-106.095876
CO,Gunnison,15324,8442.401,38.669679,-107.078108
CO,Hinsdale,843,2908.992,37.811625,-107.383405
CO,Huerfano,6711,4126.465,37.687815,-104.959928
CO,Jackson,1394,4198.273,40.663432,-106.329248
CO,Jefferson,534543,2004.736,39.58646,-105.245601
CO,Kiowa,1398,4625.529,38.388466,-102.75621
CO,Kit Carson,8270,5598.754,39.30534,-102.603023
CO,Lake,7310,994.319,39.204316,-106.349696
CO,La Plata,51334,4402.223,37.287367,-107.839718
CO,Larimer,299630,6821.909,40.663091,-105.482131
CO,Las Animas,15507,12368.092,37.318831,-104.04411
CO,Lincoln,5467,6698.802,38.99374,-103.507555
CO,Logan,22709,4778.177,40.728091,-103.090464
CO,Mesa,146723,8653.47,39.019492,-108.461837
CO,Mineral,712,2273.188,37.651478,-106.9323
CO,Moffat,13795,12304.807,40.573984,-108.204521
CO,Montezuma,25535,5283.968,37.338025,-108.595786
CO,Montrose,41276,5808.296,38.413427,-108.263042
CO,Morgan,28159,3350.779,40.262354,-103.807092
CO,Otero,18831,3288.518,37.88417,-103.72126
CO,Ouray,4436,1404.318,38.1506,-107.767133
CO,Park,16206,5725.565,39.118914,-105.717648
CO,Phillips,4442,1782.027,40.594712,-102.345105
CO,Pitkin,17148,2520.564,39.217533,-106.915943
CO,Prowers,12551,4258.775,37.958181,-102.392161
CO,Pueblo,159063,6210.261,38.170658,-104.489893
CO,Rio Blanco,6666,8347.047,39.972606,-108.200685
CO,Rio Grande,11982,2362.944,37.485763,-106.453214
CO,Routt,23509,6133.445,40.48316,-106.985289
CO,Saguache,6108,8210.895,38.033952,-106.246675
CO,San Juan,699,1005.624,37.781075,-107.670257
CO,San Miguel,7359,3337.522,38.009374,-108.427326
CO,Sedgwick,2379,1422.95,40.871568,-102.355358
CO,Summit,27994,1603.922,39.621023,-106.137555
CO,Teller,23350,1447.712,38.871994,-105.182552
CO,Washington,4814,6536.878,39.965413,-103.209605
CO,Weld,252825,10403.453,40.555794,-104.383649
CO,Yuma,10043,6134.915,40.000631,-102.422649
CT,Fairfield [6],916829,2167.619,41.228103,-73.366757
CT,Hartford [6],894014,1944.105,41.806053,-72.732916
CT,Litchfield [6],189927,2446.405,41.791897,-73.235428
CT,Middlesex [6],165676,1137.17,41.434525,-72.524227
CT,New Haven [6],862477,2232.716,41.349717,-72.900204
CT,New London [6],274055,1998.692,41.47863,-72.103452
CT,Tolland [6],152691,1080.147,41.858076,-72.340977
CT,Windham [6],118428,1350.523,41.824999,-71.990702
DE,Kent,162310,2067.667,39.097088,-75.502982
DE,New Castle,538479,1279.461,39.575915,-75.644132
DE,Sussex,197145,3098.638,38.677511,-75.335495
DC,District of Columbia [7],601723,177.0,38.904149,-77.017094
FL,Alachua,247336,2509.202,29.67574,-82.357221
FL,Baker,27115,1525.427,30.324442,-82.302284
FL,Bay,168852,2675.854,30.237563,-85.631348
FL,Bradford,28520,778.262,29.946934,-82.166796
FL,Brevard,543376,4032.599,28.298276,-80.700384
FL,Broward,1748066,3426.198,26.19352,-80.476658
FL,Calhoun,14625,1487.464,30.388801,-85.197916
FL,Charlotte,159978,2222.989,26.868826,-81.940858
FL,Citrus,141236,2002.823,28.843628,-82.524796
FL,Clay,190865,1666.782,29.987116,-81.858147
FL,Collier,321520,5969.962,26.118713,-81.400884
FL,Columbia,67531,2075.43,30.221305,-82.623127
FL,DeSoto,34862,1656.25,27.190581,-81.806253
FL,Dixie,16422,2236.843,29.580899,-83.195666
FL,Duval,864263,2378.781,30.335245,-81.648113
FL,Escambia,297619,2265.474,30.611664,-87.33904
FL,Flagler,95696,1478.429,29.474894,-81.286362
FL,Franklin,11549,2658.607,29.810176,-84.799174
FL,Gadsden,46389,1368.881,30.57917,-84.612783
FL,Gilchrist,16939,920.064,29.723456,-82.795801
FL,Glades,12884,2555.925,26.95481,-81.19082
FL,Gulf,15863,1956.894,29.907257,-85.256537
FL,Hamilton,14799,1344.349,30.491102,-82.951049
FL,Hardee,27731,1653.289,27.492846,-81.82158
FL,Hendry,39140,3082.075,26.53934,-81.151584
FL,Hernando,172778,1525.558,28.567911,-82.464835
FL,Highlands,98786,2864.616,27.342627,-81.340921
FL,Hillsborough,1229226,3278.314,27.90659,-82.349568
FL,Holmes,19927,1266.626,30.866222,-85.812959
FL,Indian River,138028,1598.038,27.700638,-80.574803
FL,Jackson,49746,2472.31,30.787812,-85.210374
FL,Jefferson,14761,1648.618,30.424558,-83.890859
FL,Lafayette,8870,1419.075,29.990066,-83.17851
FL,Lake,297052,2996.523,28.764113,-81.712282
FL,Lee,618754,3140.26,26.552134,-81.89225
FL,Leon,275487,1817.626,30.45931,-84.2778
FL,Levy,40801,3659.121,29.284409,-82.783483
FL,Liberty,8365,2183.678,30.259849,-84.868581
FL,Madison,19224,1853.612,30.447228,-83.470437
FL,Manatee,322833,2312.027,27.481386,-82.365784
FL,Marion,331298,4306.141,29.202805,-82.0431
FL,Martin,146318,1949.817,27.079954,-80.398211
FL,Miami-Dade,2496435,6296.734,25.610494,-80.499045
FL,Monroe,73090,9680.143,25.601043,-81.206777
FL,Nassau,73314,1880.126,30.605926,-81.764929
FL,Okaloosa,180822,2802.57,30.665858,-86.594194
FL,Okeechobee,39996,2310.028,27.385592,-80.887388
FL,Orange,1145956,2598.431,28.514435,-81.323295
FL,Osceola,268685,3900.278,28.059027,-81.139312
FL,Palm Beach,1320134,6171.965,26.645763,-80.448673
FL,Pasco,464697,2249.285,28.302024,-82.455707
FL,Pinellas,916542,1575.042,27.903122,-82.739518
FL,Polk,602095,5207.302,27.953115,-81.692783
FL,Putnam,74364,2141.717,29.606006,-81.740894
FL,St. Johns,190039,2127.74,29.890593,-81.383914
FL,St. Lucie,277789,1782.188,27.380775,-80.443364
FL,Santa Rosa,151372,3040.069,30.703633,-87.014255
FL,Sarasota,379448,1878.632,27.184386,-82.365835
FL,Seminole,422718,894.308,28.690079,-81.13198
FL,Sumter,93420,1501.741,28.714294,-82.074715
FL,Suwannee,41551,1792.935,30.189244,-82.992754
FL,Taylor,22570,3191.386,30.016943,-83.616417
FL,Union,15535,646.856,30.05428,-82.366918
FL,Volusia,494593,3709.99,29.057617,-81.161813
FL,Wakulla,30776,1905.521,30.140378,-84.375136
FL,Walton,55043,3210.536,30.631211,-86.176614
FL,Washington,24896,1595.314,30.602217,-85.662797
GA,Appling,18236,1326.751,31.739712,-82.290103
GA,Atkinson,8375,892.338,31.300562,-82.883614
GA,Bacon,11096,740.277,31.563327,-82.387859
GA,Baker,3451,904.264,31.319622,-84.454857
GA,Baldwin,45720,692.591,33.059532,-83.255362
GA,Banks,18395,605.763,34.351922,-83.498441
GA,Barrow,69367,422.016,33.992009,-83.712303
GA,Bartow,100157,1217.588,34.240918,-84.838188
GA,Ben Hill,17634,657.616,31.740776,-83.14719
GA,Berrien,19286,1185.911,31.274308,-83.231906
GA,Bibb,155547,661.394,32.808844,-83.694193
GA,Bleckley,13063,567.548,32.435403,-83.331717
GA,Brantley,18411,1158.249,31.197334,-81.982978
GA,Brooks,16243,1289.297,30.833696,-83.588971
GA,Bryan,30233,1177.035,32.017969,-81.438543
GA,Bulloch,70217,1783.532,32.393408,-81.74381
GA,Burke,23316,2162.595,33.063737,-82.00389
GA,Butts,23655,487.024,33.290355,-83.958221
GA,Calhoun,6694,734.463,31.521279,-84.62629
GA,Camden,50513,2025.021,30.916358,-81.636516
GA,Candler,10998,644.539,32.403986,-82.071446
GA,Carroll,110527,1304.928,33.582237,-85.080527
GA,Catoosa,63942,420.771,34.899393,-85.137353
GA,Charlton,12171,2026.34,30.779904,-82.139644
GA,Chatham,265128,1637.551,31.974756,-81.091768
GA,Chattahoochee,11267,650.516,32.347445,-84.788021
GA,Chattooga,26015,812.113,34.474179,-85.345289
GA,Cherokee,214346,1125.104,34.244317,-84.475057
GA,Clarke,116714,313.48,33.952234,-83.36713
GA,Clay,3183,562.635,31.619831,-84.992583
GA,Clayton,259424,373.817,33.552242,-84.412977
GA,Clinch,6798,2134.132,30.917653,-82.702614
GA,Cobb,688078,892.297,33.93994,-84.574166
GA,Coffee,42356,1560.857,31.549245,-82.844938
GA,Colquitt,45498,1441.689,31.189758,-83.769741
GA,Columbia,124053,796.692,33.550556,-82.251342
GA,Cook,17212,603.993,31.152935,-83.429552
GA,Coweta,127317,1154.66,33.352897,-84.762138
GA,Crawford,12630,845.511,32.709446,-83.979182
GA,Crisp,23439,727.66,31.914753,-83.753338
GA,Dade,16633,451.073,34.852424,-85.506201
GA,Dawson,22330,555.315,34.442842,-84.173284
GA,Decatur,27842,1613.997,30.877961,-84.577744
GA,DeKalb,691893,702.254,33.770661,-84.226343
GA,Dodge,21796,1303.058,32.160656,-83.156818
GA,Dooly,14918,1028.961,32.151995,-83.807167
GA,Dougherty,94565,866.694,31.535068,-84.214444
GA,Douglas,132403,520.655,33.699317,-84.765944
GA,Early,11008,1337.329,31.324191,-84.906723
GA,Echols,4034,1089.659,30.7085,-82.836132
GA,Effingham,52250,1250.784,32.361711,-81.343337
GA,Elbert,20166,969.216,34.115017,-82.842057
GA,Emanuel,22598,1787.562,32.5911,-82.299763
GA,Evans,11000,483.99,32.151902,-81.887618
GA,Fannin,23682,1015.172,34.863837,-84.319287
GA,Fayette,106567,516.241,33.412717,-84.493941
GA,Floyd,96317,1342.818,34.263677,-85.21373
GA,Forsyth,175511,640.157,34.225143,-84.127336
GA,Franklin,22084,690.105,34.375155,-83.227291
GA,Fulton,920581,1383.895,33.790034,-84.468182
GA,Gilmer,28292,1116.923,34.690541,-84.453984
GA,Glascock,3082,374.132,33.227491,-82.606913
GA,Glynn,79626,1515.785,31.212747,-81.496517
GA,Gordon,55186,927.327,34.509667,-84.873862
GA,Grady,25011,1192.078,30.875863,-84.244772
GA,Greene,15994,1052.081,33.576836,-83.167103
GA,Gwinnett,805321,1131.243,33.959101,-84.022938
GA,Habersham,43041,722.672,34.635108,-83.526406
GA,Hall,179684,1111.868,34.317588,-83.818497
GA,Hancock,9429,1239.776,33.26922,-83.000465
GA,Haralson,28780,733.42,33.795165,-85.220062
GA,Harris,32024,1224.95,32.731549,-84.912432
GA,Hart,25213,665.492,34.348733,-82.96329
GA,Heard,11834,779.831,33.290968,-85.139594
GA,Henry,203922,845.752,33.452881,-84.15444
GA,Houston,139900,983.991,32.458381,-83.662856
GA,Irwin,9538,939.551,31.604306,-83.277037
GA,Jackson,60485,888.623,34.134157,-83.565133
GA,Jasper,13900,967.269,33.314905,-83.687892
GA,Jeff Davis,15068,868.677,31.811615,-82.636825
GA,Jefferson,16930,1371.831,33.051874,-82.41905
GA,Jenkins,8340,912.901,32.794563,-81.971524
GA,Johnson,9980,794.072,32.689831,-82.661354
GA,Jones,28669,1024.124,33.020226,-83.562339
GA,Lamar,18317,481.309,33.07446,-84.146721
GA,Lanier,10078,517.45,31.038197,-83.063164
GA,Laurens,48434,2119.828,32.39322,-82.926317
GA,Lee,28298,936.884,31.818419,-84.146681
GA,Liberty,63453,1560.539,31.807245,-81.457969
GA,Lincoln,7996,666.398,33.792151,-82.448299
GA,Long,14464,1045.872,31.749563,-81.74287
GA,Lowndes,109233,1322.384,30.83368,-83.268967
GA,Lumpkin,29966,736.066,34.568149,-83.998828
GA,McDuffie,21875,689.941,33.482464,-82.473188
GA,McIntosh,14333,1486.377,31.482978,-81.370199
GA,Macon,14740,1051.513,32.366216,-84.052162
GA,Madison,28120,739.669,34.128486,-83.203637
GA,Marion,8742,951.77,32.359538,-84.529561
GA,Meriwether,21992,1308.996,33.03022,-84.663279
GA,Miller,6125,734.683,31.162908,-84.730386
GA,Mitchell,23498,1330.797,31.22894,-84.192407
GA,Monroe,26424,1030.326,33.017435,-83.922938
GA,Montgomery,9123,633.752,32.172108,-82.533349
GA,Morgan,17868,918.463,33.593732,-83.492324
GA,Murray,39628,897.852,34.797097,-84.73799
GA,Muscogee,189885,572.404,32.510197,-84.874946
GA,Newton,99958,723.119,33.544046,-83.855189
GA,Oconee,32808,482.701,33.834125,-83.437728
GA,Oglethorpe,14899,1144.874,33.866806,-83.074081
GA,Paulding,142324,814.141,33.920903,-84.866979
GA,Peach,27695,391.867,32.571324,-83.831978
GA,Pickens,29431,602.722,34.456621,-84.490256
GA,Pierce,18758,888.961,31.353988,-82.210427
GA,Pike,17869,568.256,33.090769,-84.386627
GA,Polk,41475,808.441,33.995961,-85.186826
GA,Pulaski,12010,650.622,32.238794,-83.481855
GA,Putnam,21218,934.174,33.321061,-83.37179
GA,Quitman,2513,415.861,31.861487,-85.009317
GA,Rabun,16276,976.122,34.883026,-83.404735
GA,Randolph,7719,1115.957,31.762651,-84.752311
GA,Richmond,200549,851.047,33.361487,-82.074998
GA,Rockdale,85215,342.132,33.652081,-84.02637
GA,Schley,5010,434.66,32.263441,-84.322724
GA,Screven,14593,1698.693,32.744751,-81.617585
GA,Seminole,8729,664.477,30.933894,-84.867592
GA,Spalding,64073,516.937,33.262389,-84.286067
GA,Stephens,26175,477.07,34.552914,-83.290216
GA,Stewart,6058,1200.751,32.073225,-84.834912
GA,Sumter,32819,1275.968,32.042203,-84.204283
GA,Talbot,6865,1022.429,32.704603,-84.530029
GA,Taliaferro,1717,505.947,33.559314,-82.875208
GA,Tattnall,25520,1264.818,32.043768,-82.059208
GA,Taylor,8906,983.416,32.554667,-84.251426
GA,Telfair,16500,1149.978,31.913639,-82.931062
GA,Terrell,9315,874.647,31.777191,-84.439446
GA,Thomas,44720,1430.238,30.864616,-83.919783
GA,Tift,40118,696.161,31.457003,-83.525931
GA,Toombs,27223,960.867,32.126698,-82.332071
GA,Towns,10471,445.433,34.90265,-83.732158
GA,Treutlen,6885,524.342,32.409586,-82.570882
GA,Troup,67044,1155.036,33.034482,-85.02836
GA,Turner,8930,751.046,31.718232,-83.628567
GA,Twiggs,9023,939.218,32.665847,-83.425879
GA,Union,21356,852.118,34.83377,-83.989573
GA,Upson,27153,848.36,32.881837,-84.292281
GA,Walker,68756,1157.79,34.735827,-85.305385
GA,Walton,83768,854.696,33.782649,-83.734215
GA,Ware,36312,2351.678,31.050881,-82.421507
GA,Warren,5834,742.518,33.419169,-82.688012
GA,Washington,21187,1772.473,32.971848,-82.798112
GA,Wayne,30099,1680.374,31.547845,-81.912376
GA,Webster,2799,544.58,32.046554,-84.553218
GA,Wheeler,7421,777.691,32.109276,-82.738701
GA,White,27144,627.315,34.643677,-83.743713
GA,Whitfield,102599,753.827,34.801726,-84.968541
GA,Wilcox,9255,989.694,31.962717,-83.438262
GA,Wilkes,10593,1227.899,33.77904,-82.747922
GA,Wilkinson,9563,1170.545,32.804321,-83.175587
GA,Worth,21679,1488.61,31.551773,-83.84996
HI,Hawaiʻi,185079,13173.021,19.597764,-155.502443
HI,Honolulu,953207,5511.678,21.461364,-158.201976
HI,Kalawao [8],90,136.827,21.218764,-156.97401
HI,Kauaʻi,67091,3279.855,22.012038,-159.705965
HI,Maui,154834,6211.643,20.855931,-156.60155
ID,Ada,392365,2746.583,43.447861,-116.244456
ID,Adams,3976,3547.691,44.884583,-116.431873
ID,Bannock,82839,2971.836,42.692939,-112.228986
ID,Bear Lake,5986,2717.955,42.285833,-111.327445
ID,Benewah,9285,2030.418,47.218451,-116.633541
ID,Bingham,45607,5491.826,43.216357,-112.399206
ID,Blaine,21376,6891.197,43.394482,-113.95529
ID,Boise,7028,4938.294,43.987275,-115.715111
ID,Bonner,40877,4971.479,48.312512,-116.59694
ID,Bonneville,104234,4922.624,43.395171,-111.621878
ID,Boundary,10972,3309.637,48.773065,-116.524619
ID,Butte,2891,5785.248,43.6851,-113.177627
ID,Camas,1117,2794.461,43.463396,-114.804427
ID,Canyon,188923,1563.182,43.623051,-116.708527
ID,Caribou,6963,4658.287,42.786273,-111.544172
ID,Cassia,22952,6682.9,42.288635,-113.605498
ID,Clark,982,4571.696,44.286251,-112.36112
ID,Clearwater,8761,6443.854,46.67257,-115.6535
ID,Custer,4368,12787.563,44.273341,-114.252251
ID,Elmore,27038,8030.918,43.394826,-115.470751
ID,Franklin,12786,1731.001,42.173589,-111.822955
ID,Fremont,13242,4909.8,44.218091,-111.484429
ID,Gem,16719,1465.17,44.061473,-116.398784
ID,Gooding,15464,1900.321,42.973185,-114.82142
ID,Idaho,16267,22023.576,45.849237,-115.467376
ID,Jefferson,26140,2863.422,43.796965,-112.318588
ID,Jerome,22374,1559.565,42.691172,-114.263009
ID,Kootenai,138494,3407.448,47.677113,-116.694918
ID,Latah,37244,2789.189,46.81892,-116.730974
ID,Lemhi,7936,11833.013,44.928789,-113.887841
ID,Lewis,3821,1242.518,46.236328,-116.42376
ID,Lincoln,5208,3123.234,42.986181,-114.153899
ID,Madison,37536,1225.65,43.789709,-111.65655
ID,Minidoka,20069,1975.973,42.856937,-113.64001
ID,Nez Perce,39265,2217.76,46.333766,-116.760903
ID,Oneida,4286,3112.139,42.18389,-112.520465
ID,Owyhee,11526,19935.091,42.593063,-116.142655
ID,Payette,22623,1062.608,44.00274,-116.748655
ID,Power,7817,3736.487,42.694126,-112.844407
ID,Shoshone,12765,6824.937,47.347694,-115.885092
ID,Teton,10170,1166.944,43.760994,-111.211765
ID,Twin Falls,77230,4994.335,42.352309,-114.665639
ID,Valley,9862,9668.324,44.771532,-115.637875
ID,Washington,10198,3816.418,44.448213,-116.79783
IL,Adams,67103,2256.757,39.986053,-91.194961
IL,Alexander,8238,654.234,37.183683,-89.349506
IL,Bond,17768,991.345,38.885924,-89.436592
IL,Boone,54165,730.441,42.318983,-88.824295
IL,Brown,6937,795.658,39.962069,-90.75031
IL,Bureau,34978,2262.364,41.401304,-89.528377
IL,Calhoun,5089,734.46,39.164262,-90.666295
IL,Carroll,15387,1207.867,42.059084,-89.926485
IL,Cass,13642,993.947,39.969202,-90.245705
IL,Champaign,201081,2585.825,40.13915,-88.197201
IL,Christian,34800,1853.5,39.545524,-89.279593
IL,Clark,16335,1307.473,39.332364,-87.791687
IL,Clay,13815,1216.237,38.747312,-88.483789
IL,Clinton,37762,1303.467,38.606423,-89.423136
IL,Coles,53873,1321.091,39.51368,-88.220782
IL,Cook,5194675,4234.266,41.894294,-87.645455
IL,Crawford,19817,1154.665,39.00373,-87.757172
IL,Cumberland,11048,898.734,39.273121,-88.240619
IL,DeKalb,105160,1643.762,41.894613,-88.768991
IL,De Witt,16561,1049.163,40.181499,-88.901853
IL,Douglas,19980,1080.605,39.766078,-88.222866
IL,DuPage,916924,871.302,41.852058,-88.086038
IL,Edgar,18576,1616.143,39.679037,-87.74711
IL,Edwards,6721,576.843,38.417095,-88.047941
IL,Effingham,34242,1243.211,39.047694,-88.592786
IL,Fayette,22140,1878.63,39.001125,-89.017923
IL,Ford,14081,1259.36,40.594423,-88.224746
IL,Franklin,39561,1117.435,37.991848,-88.926246
IL,Fulton,37069,2285.855,40.465688,-90.206793
IL,Gallatin,5589,849.989,37.768677,-88.227964
IL,Greene,13886,1414.839,39.355444,-90.387757
IL,Grundy,50063,1114.853,41.29241,-88.401055
IL,Hamilton,8457,1128.952,38.085226,-88.539005
IL,Hancock,19104,2109.276,40.405792,-91.167988
IL,Hardin,4320,470.286,37.517852,-88.266148
IL,Henderson,7331,1023.614,40.815141,-90.93848
IL,Henry,50486,2138.406,41.350021,-90.130838
IL,Iroquois,29718,2898.008,40.748867,-87.833601
IL,Jackson,60218,1560.155,37.786096,-89.381212
IL,Jasper,9698,1290.123,39.004874,-88.150763
IL,Jefferson,38827,1511.994,38.30078,-88.92421
IL,Jersey,22985,976.757,39.080192,-90.361365
IL,Jo Daviess,22678,1602.499,42.362391,-90.211471
IL,Johnson,12582,903.552,37.460815,-88.882962
IL,Kane,515269,1357.674,41.939594,-88.42804
IL,Kankakee,113449,1764.723,41.139494,-87.861125
IL,Kendall,114736,834.805,41.58814,-88.430626
IL,Knox,52919,1864.303,40.930941,-90.213761
IL,Lake,703462,3544.344,42.326444,-87.436118
IL,La Salle,113924,2973.658,41.343341,-88.885931
IL,Lawrence,16833,969.015,38.718954,-87.730221
IL,Lee,36031,1887.979,41.747442,-89.299351
IL,Livingston,38950,2708.939,40.894376,-88.552852
IL,Logan,30305,1603.012,40.12907,-89.365308
IL,McDonough,32612,1528.571,40.455789,-90.677579
IL,McHenry,308760,1581.998,42.324298,-88.452245
IL,McLean,169572,3072.424,40.494559,-88.844539
IL,Macon,110768,1517.383,39.860237,-88.961529
IL,Macoupin,47765,2247.205,39.2659,-89.926344
IL,Madison,269282,1918.045,38.827082,-89.900195
IL,Marion,39437,1491.926,38.648396,-88.920221
IL,Marshall,12640,1032.147,41.031119,-89.342371
IL,Mason,14666,1459.364,40.236993,-89.913575
IL,Massac,15429,626.295,37.216119,-88.705658
IL,Menard,12705,817.03,40.022569,-89.794133
IL,Mercer,16434,1472.91,41.204791,-90.741433
IL,Monroe,32957,1030.908,38.277983,-90.179078
IL,Montgomery,30104,1838.053,39.228092,-89.478007
IL,Morgan,35547,1482.241,39.716806,-90.202277
IL,Moultrie,14846,892.191,39.636896,-88.625726
IL,Ogle,53497,1976.123,42.041884,-89.320176
IL,Peoria,186494,1633.244,40.785999,-89.767358
IL,Perry,22350,1157.602,38.084385,-89.368487
IL,Piatt,16729,1138.202,40.009056,-88.592328
IL,Pike,16430,2198.602,39.625106,-90.889034
IL,Pope,4470,969.439,37.417169,-88.542374
IL,Pulaski,6161,526.361,37.215615,-89.127755
IL,Putnam,6006,446.057,41.19894,-89.298386
IL,Randolph,33476,1546.753,38.056515,-89.82121
IL,Richland,16233,937.308,38.71155,-88.085698
IL,Rock Island,147546,1168.831,41.468404,-90.572203
IL,St. Clair,270056,1745.738,38.470198,-89.928546
IL,Saline,24913,1001.755,37.751653,-88.545031
IL,Sangamon,197465,2271.47,39.756378,-89.662311
IL,Schuyler,7544,1143.043,40.156905,-90.613464
IL,Scott,5355,654.674,39.63698,-90.477759
IL,Shelby,22363,1989.291,39.384926,-88.798862
IL,Stark,5994,746.83,41.096908,-89.797411
IL,Stephenson,47711,1463.494,42.349726,-89.665994
IL,Tazewell,135394,1704.047,40.508074,-89.51626
IL,Union,17808,1093.358,37.475104,-89.252875
IL,Vermilion,81625,2334.298,40.18674,-87.726772
IL,Wabash,11947,589.237,38.445821,-87.839167
IL,Warren,17707,1406.498,40.850441,-90.620223
IL,Washington,14716,1460.51,38.353141,-89.417187
IL,Wayne,16760,1853.101,38.431948,-88.432129
IL,White,14665,1299.814,38.087372,-88.178585
IL,Whiteside,58498,1803.995,41.750571,-89.910957
IL,Will,677560,2199.485,41.448474,-87.978456
IL,Williamson,66357,1150.866,37.730353,-88.930018
IL,Winnebago,295266,1344.852,42.337396,-89.161205
IL,Woodford,38664,1405.436,40.789596,-89.210301
IN,Adams,34387,880.51,40.745733,-84.936131
IN,Allen,355329,1709.449,41.091855,-85.07223
IN,Bartholomew,76794,1060.665,39.205843,-85.897999
IN,Benton,8854,1052.853,40.608253,-87.315479
IN,Blackford,12766,428.858,40.472672,-85.32373
IN,Boone,56640,1096.217,40.050892,-86.469014
IN,Brown,15242,820.07,39.192585,-86.23941
IN,Carroll,20155,971.294,40.58498,-86.565141
IN,Cass,38966,1074.45,40.753799,-86.355169
IN,Clark,110232,975.004,38.476217,-85.711122
IN,Clay,26890,933.228,39.393951,-87.115837
IN,Clinton,33224,1049.588,40.305944,-86.477567
IN,Crawford,10713,799.577,38.289433,-86.440871
IN,Daviess,31648,1131.499,38.696155,-87.076988
IN,Dearborn,50047,796.202,39.151491,-84.97346
IN,Decatur,25740,966.902,39.30598,-85.499831
IN,DeKalb,42223,942.368,41.401189,-85.000185
IN,Delaware,117671,1025.4,40.227165,-85.398856
IN,Dubois,41889,1127.509,38.373344,-86.873385
IN,Elkhart,197559,1212.038,41.600693,-85.863986
IN,Fayette,24277,557.268,39.639655,-85.185032
IN,Floyd,74578,385.798,38.317937,-85.911474
IN,Fountain,17240,1030.503,40.121282,-87.234806
IN,Franklin,23087,1012.814,39.409762,-85.066964
IN,Fulton,20836,961.573,41.050384,-86.265006
IN,Gibson,33503,1292.83,38.317413,-87.580566
IN,Grant,70061,1074.58,40.515758,-85.654946
IN,Greene,33165,1413.92,39.0486,-87.005245
IN,Hamilton,274569,1042.307,40.04987,-86.020586
IN,Hancock,70002,795.191,39.822604,-85.772904
IN,Harrison,39364,1260.083,38.18644,-86.103681
IN,Hendricks,145448,1058.729,39.768749,-86.510287
IN,Henry,49462,1022.61,39.929576,-85.397338
IN,Howard,82752,761.253,40.483537,-86.114118
IN,Huntington,37124,1004.196,40.826394,-85.478598
IN,Jackson,42376,1331.03,38.911957,-86.042516
IN,Jasper,33478,1453.982,41.017688,-87.118814
IN,Jay,21253,994.769,40.434972,-85.00338
IN,Jefferson,32428,939.877,38.783604,-85.44009
IN,Jennings,28525,979.91,38.996234,-85.628111
IN,Johnson,139654,833.432,39.495986,-86.0946
IN,Knox,38440,1357.269,38.688663,-87.420182
IN,Kosciusko,77358,1435.871,41.244293,-85.861575
IN,LaGrange,37128,1001.555,41.642468,-85.426302
IN,Lake,496005,1622.784,41.472239,-87.374337
IN,LaPorte,111467,1588.335,41.549011,-86.744729
IN,Lawrence,46134,1170.491,38.839815,-86.48782
IN,Madison,131636,1173.017,40.166203,-85.722454
IN,Marion,903393,1043.786,39.782976,-86.135794
IN,Marshall,47051,1164.829,41.325003,-86.269036
IN,Martin,10334,881.648,38.705322,-86.801847
IN,Miami,36903,977.431,40.772881,-86.044259
IN,Monroe,137974,1065.316,39.160751,-86.523325
IN,Montgomery,38124,1309.097,40.040296,-86.892715
IN,Morgan,68894,1060.411,39.482646,-86.447457
IN,Newton,14244,1044.9,40.962399,-87.402172
IN,Noble,47536,1081.146,41.400794,-85.41785
IN,Ohio,6128,226.454,38.940527,-84.964299
IN,Orange,19840,1057.212,38.547381,-86.489257
IN,Owen,21575,1004.463,39.317339,-86.838845
IN,Parke,17339,1165.441,39.77425,-87.19695
IN,Perry,19338,1000.486,38.081436,-86.62654
IN,Pike,12845,883.43,38.397898,-87.232532
IN,Porter,164343,1351.406,41.509922,-87.071308
IN,Posey,25910,1086.047,38.027614,-87.868653
IN,Pulaski,13402,1125.438,41.045272,-86.692538
IN,Putnam,37963,1250.167,39.665545,-86.853325
IN,Randolph,26171,1174.077,40.164414,-85.005004
IN,Ripley,28818,1160.474,39.10023,-85.260541
IN,Rush,17392,1057.908,39.622312,-85.466527
IN,St. Joseph,266931,1194.983,41.617699,-86.288159
IN,Scott,24181,499.216,38.679431,-85.751898
IN,Shelby,44436,1069.034,39.524135,-85.792174
IN,Spencer,20952,1039.689,38.009789,-87.010645
IN,Starke,23363,808.609,41.28322,-86.64757
IN,Steuben,34185,835.183,41.643437,-85.002467
IN,Sullivan,21475,1176.155,39.089225,-87.415843
IN,Switzerland,10613,578.704,38.825846,-85.029679
IN,Tippecanoe,172780,1303.394,40.38926,-86.893943
IN,Tipton,15936,674.866,40.310229,-86.056207
IN,Union,7516,427.807,39.623111,-84.925152
IN,Vanderburgh,179703,612.091,38.02007,-87.586166
IN,Vermillion,16212,673.217,39.854045,-87.462071
IN,Vigo,107848,1063.062,39.429143,-87.390375
IN,Wabash,32888,1090.322,40.843717,-85.795175
IN,Warren,8508,948.987,40.352658,-87.375847
IN,Warrick,59689,1012.823,38.097764,-87.272023
IN,Washington,28262,1337.987,38.600613,-86.104751
IN,Wayne,68917,1047.239,39.863091,-85.006735
IN,Wells,27636,958.938,40.735273,-85.212974
IN,White,24643,1317.473,40.75095,-86.864293
IN,Whitley,33292,875.194,41.136426,-85.501892
IA,Adair,7682,1477.002,41.328528,-94.478164
IA,Adams,4029,1102.054,41.021656,-94.696906
IA,Allamakee,14330,1706.21,43.274964,-91.382751
IA,Appanoose,12887,1337.065,40.744683,-92.870345
IA,Audubon,6119,1148.417,41.679178,-94.904312
IA,Benton,26076,1860.878,42.092547,-92.05763
IA,Black Hawk,131090,1483.234,42.472888,-92.306059
IA,Boone,26306,1485.722,42.038601,-93.939138
IA,Bremer,24276,1138.052,42.78089,-92.327586
IA,Buchanan,20958,1484.363,42.470328,-91.838666
IA,Buena Vista,20260,1502.781,42.741522,-95.141433
IA,Butler,14867,1506.743,42.734708,-92.780066
IA,Calhoun,9670,1481.77,42.38617,-94.643683
IA,Carroll,20816,1476.98,42.039492,-94.867647
IA,Cass,13956,1463.21,41.333824,-94.933302
IA,Cedar,18499,1507.117,41.772355,-91.13219
IA,Cerro Gordo,44151,1489.55,43.075171,-93.251266
IA,Cherokee,12072,1494.604,42.742738,-95.633262
IA,Chickasaw,12439,1309.648,43.059741,-92.31721
IA,Clarke,9286,1118.241,41.029191,-93.784096
IA,Clay,16667,1483.006,43.079822,-95.149726
IA,Clayton,18129,2052.992,42.840998,-91.323511
IA,Clinton,49116,1839.345,41.898073,-90.534243
IA,Crawford,17096,1851.937,42.043119,-95.38909
IA,Dallas,66135,1532.492,41.685321,-94.040707
IA,Davis,8753,1307.566,40.748089,-92.410345
IA,Decatur,8457,1381.708,40.736379,-93.78458
IA,Delaware,17764,1499.464,42.473003,-91.359443
IA,Des Moines,40325,1113.049,40.915339,-91.186925
IA,Dickinson,16667,1046.255,43.389611,-95.196057
IA,Dubuque,93653,1597.071,42.463481,-90.878771
IA,Emmet,10302,1042.53,43.377984,-94.66937
IA,Fayette,20880,1894.125,42.86445,-91.839373
IA,Floyd,16303,1298.574,43.052741,-92.787367
IA,Franklin,10680,1508.73,42.736549,-93.271425
IA,Fremont,7441,1338.087,40.743726,-95.599516
IA,Greene,9336,1479.439,42.042494,-94.388703
IA,Grundy,12453,1299.9,42.403323,-92.790261
IA,Guthrie,10954,1536.055,41.683573,-94.501272
IA,Hamilton,15673,1495.743,42.390768,-93.709198
IA,Hancock,11341,1484.161,43.075411,-93.743697
IA,Hardin,17534,1476.273,42.389955,-93.241081
IA,Harrison,14928,1817.246,41.688584,-95.827149
IA,Henry,20145,1130.685,40.985864,-91.54427
IA,Howard,9566,1226.634,43.365313,-92.321908
IA,Humboldt,9815,1128.373,42.782221,-94.202775
IA,Ida,7089,1119.006,42.39186,-95.507421
IA,Iowa,16355,1521.603,41.683918,-92.059123
IA,Jackson,19848,1682.474,42.164281,-90.574597
IA,Jasper,36842,1898.345,41.685686,-93.052971
IA,Jefferson,16843,1131.503,41.00688,-91.967137
IA,Johnson,130882,1613.951,41.668737,-91.588812
IA,Jones,20638,1494.434,42.125118,-91.116914
IA,Keokuk,10511,1501.997,41.331182,-92.167721
IA,Kossuth,15543,2523.488,43.212478,-94.213983
IA,Lee,35862,1395.66,40.647588,-91.477157
IA,Linn,211226,1876.459,42.077951,-91.597674
IA,Louisa,11387,1081.368,41.218211,-91.256994
IA,Lucas,8898,1125.084,41.033344,-93.331467
IA,Lyon,11581,1522.342,43.38358,-96.207201
IA,Madison,15679,1455.983,41.330622,-94.015184
IA,Mahaska,22381,1485.092,41.330797,-92.636366
IA,Marion,33309,1477.612,41.331455,-93.093849
IA,Marshall,40648,1484.574,42.041691,-92.981452
IA,Mills,15059,1141.263,41.033703,-95.619101
IA,Mitchell,10776,1216.167,43.348564,-92.784466
IA,Monona,9243,1810.23,42.049432,-95.956566
IA,Monroe,7970,1124.84,41.028847,-92.869642
IA,Montgomery,10740,1100.816,41.021735,-95.15779
IA,Muscatine,42745,1163.239,41.483776,-91.118699
IA,O'Brien,14398,1484.602,43.083746,-95.625624
IA,Osceola,6462,1034.423,43.378542,-95.633788
IA,Page,15932,1386.854,40.73909,-95.14429
IA,Palo Alto,9421,1474.829,43.075854,-94.667297
IA,Plymouth,24986,2237.059,42.737585,-96.215864
IA,Pocahontas,7310,1498.714,42.734033,-94.678279
IA,Polk,430640,1532.067,41.684281,-93.56972
IA,Pottawattamie,93158,2484.14,41.340184,-95.544905
IA,Poweshiek,18914,1517.907,41.684526,-92.522882
IA,Ringgold,5131,1395.655,40.735334,-94.244251
IA,Sac,10350,1497.87,42.387526,-95.105224
IA,Scott,165224,1212.66,41.641679,-90.62229
IA,Shelby,12167,1531.597,41.679014,-95.308917
IA,Sioux,33704,1991.677,43.082854,-96.177929
IA,Story,89542,1485.745,42.037538,-93.466093
IA,Tama,17767,1870.181,42.074848,-92.529412
IA,Taylor,6317,1384.752,40.737949,-94.697108
IA,Union,12534,1102.812,41.02855,-94.245091
IA,Van Buren,7570,1270.438,40.754117,-91.952943
IA,Wapello,35625,1129.289,41.031263,-92.409482
IA,Warren,46225,1484.97,41.336769,-93.564366
IA,Washington,21704,1478.676,41.329401,-91.725052
IA,Wayne,6403,1365.316,40.739983,-93.332613
IA,Webster,38013,1860.721,42.434397,-94.179157
IA,Winnebago,10866,1040.444,43.378124,-93.743488
IA,Winneshiek,21056,1787.449,43.292989,-91.850788
IA,Woodbury,102172,2273.423,42.39322,-96.053296
IA,Worth,7598,1041.024,43.373491,-93.248533
IA,Wright,13229,1507.991,42.733007,-93.734735
KS,Allen,13371,1308.786,37.884229,-95.300945
KS,Anderson,8102,1511.863,38.215114,-95.292046
KS,Atchison,16924,1123.587,39.532544,-95.313398
KS,Barber,4861,2942.656,37.222906,-98.685052
KS,Barton,27674,2332.632,38.481239,-98.767837
KS,Bourbon,15173,1655.239,37.8561,-94.850928
KS,Brown,9984,1481.748,39.825931,-95.569905
KS,Butler,65880,3746.49,37.773681,-96.838762
KS,Chase,2790,2014.305,38.298553,-96.594064
KS,Chautauqua,3669,1669.937,37.154259,-96.245396
KS,Cherokee,21603,1530.742,37.169392,-94.845698
KS,Cheyenne,2726,2644.234,39.789256,-101.727302
KS,Clark,2215,2530.891,37.233831,-99.813869
KS,Clay,8535,1697.996,39.344964,-97.168853
KS,Cloud,9533,1859.586,39.487329,-97.64139
KS,Coffey,8601,1694.095,38.23645,-95.729137
KS,Comanche,1891,2045.286,37.189071,-99.254089
KS,Cowley,36311,2932.971,37.234507,-96.837247
KS,Crawford,39134,1541.073,37.505628,-94.853941
KS,Decatur,2961,2315.831,39.783542,-100.459708
KS,Dickinson,19754,2206.541,38.867735,-97.157943
KS,Doniphan,7945,1031.53,39.788502,-95.147225
KS,Douglas,110826,1229.303,38.896573,-95.290529
KS,Edwards,3037,1610.906,37.883595,-99.304746
KS,Elk,2882,1684.699,37.456026,-96.244642
KS,Ellis,28452,2331.96,38.914596,-99.317329
KS,Ellsworth,6497,1873.305,38.700845,-98.205355
KS,Finney,36776,3373.905,38.049855,-100.739929
KS,Ford,33848,2846.606,37.688365,-99.884734
KS,Franklin,25992,1494.776,38.558019,-95.278962
KS,Geary,34362,1047.612,39.002155,-96.768038
KS,Gove,2695,2775.844,38.917239,-100.48736
KS,Graham,2597,2327.76,39.349445,-99.880952
KS,Grant,7829,1489.617,37.547537,-101.299362
KS,Gray,6006,2251.47,37.744513,-100.451716
KS,Greeley,1247,2016.177,38.480408,-101.805984
KS,Greenwood,6689,2985.288,37.878659,-96.242232
KS,Hamilton,2690,2583.847,37.995244,-101.793689
KS,Harper,6034,2079.19,37.188184,-98.06659
KS,Harvey,34684,1400.465,38.050144,-97.436707
KS,Haskell,4256,1496.683,37.55855,-100.876869
KS,Hodgeman,1916,2228.196,38.087493,-99.898407
KS,Jackson,13462,1704.261,39.410989,-95.794509
KS,Jefferson,19126,1441.787,39.239644,-95.375314
KS,Jewell,3077,2368.182,39.77701,-98.222584
KS,Johnson,544179,1242.925,38.883907,-94.82233
KS,Kearny,3977,2255.831,37.994461,-101.308136
KS,Kingman,7858,2244.636,37.552951,-98.144529
KS,Kiowa,2553,1872.224,37.561231,-99.286539
KS,Labette,21607,1691.567,37.191468,-95.297473
KS,Lane,1750,1858.751,38.481286,-100.466185
KS,Leavenworth,76227,1214.632,39.189511,-95.038977
KS,Lincoln,3241,1865.975,39.047276,-98.214265
KS,Linn,9656,1570.556,38.216549,-94.844932
KS,Logan,2756,2779.317,38.91327,-101.157407
KS,Lyon,33690,2215.52,38.455498,-96.161589
KS,McPherson,29180,2332.55,38.395812,-97.647489
KS,Marion,12660,2470.15,38.359647,-97.102771
KS,Marshall,10117,2344.217,39.782709,-96.521243
KS,Meade,4575,2536.493,37.243886,-100.360094
KS,Miami,32787,1528.755,38.566772,-94.832963
KS,Mitchell,6373,1862.613,39.393026,-98.207362
KS,Montgomery,35471,1687.33,37.189537,-95.742403
KS,Morris,5923,1820.475,38.687696,-96.644905
KS,Morton,3233,1890.501,37.18525,-101.809516
KS,Nemaha,10178,1863.334,39.791043,-96.005381
KS,Neosho,16512,1496.481,37.564283,-95.315683
KS,Ness,3107,2784.258,38.480437,-99.908745
KS,Norton,5671,2282.552,39.783867,-99.899235
KS,Osage,16295,1864.391,38.649706,-95.727275
KS,Osborne,3858,2316.38,39.348649,-98.767876
KS,Ottawa,6091,1868.251,39.137963,-97.654803
KS,Pawnee,6973,1954.524,38.182873,-99.232154
KS,Phillips,5642,2316.904,39.784506,-99.34215
KS,Pottawatomie,21604,2232.339,39.382187,-96.337113
KS,Pratt,9656,1905.511,37.647594,-98.74012
KS,Rawlins,2519,2770.191,39.786198,-101.076738
KS,Reno,64511,3294.75,37.948185,-98.078346
KS,Republic,4980,1865.949,39.82891,-97.650921
KS,Rice,10083,1885.415,38.347178,-98.201415
KS,Riley,71115,1610.859,39.291211,-96.727489
KS,Rooks,5181,2318.432,39.346006,-99.324492
KS,Rush,3307,1859.542,38.523592,-99.309183
KS,Russell,6970,2329.529,38.916839,-98.765638
KS,Saline,55606,1868.183,38.786327,-97.650153
KS,Scott,4936,1858.736,38.481877,-100.90636
KS,Sedgwick,498365,2613.611,37.683807,-97.459451
KS,Seward,22952,1658.853,37.180585,-100.854741
KS,Shawnee,177934,1439.326,39.041805,-95.755664
KS,Sheridan,2556,2321.166,39.350543,-100.441206
KS,Sherman,6010,2735.748,39.351352,-101.719859
KS,Smith,3853,2323.128,39.78466,-98.78543
KS,Stafford,4437,2058.825,38.03563,-98.719889
KS,Stanton,2235,1762.266,37.565932,-101.789383
KS,Stevens,5724,1884.144,37.202356,-101.315796
KS,Sumner,24132,3069.019,37.236663,-97.493349
KS,Thomas,7900,2783.714,39.357706,-101.083439
KS,Trego,3001,2330.019,38.921302,-99.865423
KS,Wabaunsee,7053,2071.007,38.955154,-96.201262
KS,Wallace,1485,2366.489,38.926626,-101.771103
KS,Washington,5799,2327.546,39.776714,-97.095611
KS,Wichita,2234,1861.144,38.481922,-101.347434
KS,Wilson,9409,1489.434,37.558515,-95.745175
KS,Woodson,3309,1308.599,37.888484,-95.757553
KS,Wyandotte,157505,404.538,39.115384,-94.763087
KY,Adair,18656,1068.109,37.105541,-85.281401
KY,Allen,19956,911.323,36.75077,-86.192458
KY,Anderson,21421,529.057,38.005396,-84.986417
KY,Ballard,8249,708.853,37.05112,-89.009178
KY,Barren,42173,1294.992,36.963614,-85.92499
KY,Bath,11591,735.568,38.152249,-83.737641
KY,Bell,28691,935.288,36.72268,-83.681046
KY,Boone,118811,664.239,38.974595,-84.731444
KY,Bourbon,19985,755.22,38.202562,-84.20986
KY,Boyd,49542,419.635,38.360004,-82.681406
KY,Boyle,28432,473.093,37.6182,-84.873016
KY,Bracken,8488,541.17,38.678523,-84.100355
KY,Breathitt,13878,1282.737,37.521178,-83.322401
KY,Breckinridge,20059,1516.751,37.778109,-86.432829
KY,Bullitt,74319,777.682,37.969572,-85.703036
KY,Butler,12690,1117.511,37.207013,-86.682471
KY,Caldwell,12984,901.707,37.148643,-87.87051
KY,Calloway,37191,1063.699,36.620978,-88.274086
KY,Campbell,90336,412.897,38.946981,-84.379583
KY,Carlisle,5104,515.355,36.857726,-88.975757
KY,Carroll,10811,355.644,38.668284,-85.124083
KY,Carter,27720,1067.391,38.309555,-83.048821
KY,Casey,15955,1154.451,37.321962,-84.92822
KY,Christian,73955,1875.261,36.893388,-87.493554
KY,Clark,35613,660.851,37.970133,-84.144974
KY,Clay,21730,1220.108,37.164466,-83.710763
KY,Clinton,10272,532.028,36.729124,-85.153499
KY,Crittenden,9315,961.25,37.358149,-88.10501
KY,Cumberland,6856,805.247,36.784227,-85.393499
KY,Daviess,96656,1234.322,37.731671,-87.087139
KY,Edmonson,12161,797.726,37.227856,-86.217778
KY,Elliott,7852,609.484,38.116425,-83.097541
KY,Estill,14672,662.027,37.69246,-83.963927
KY,Fayette,295803,739.571,38.040157,-84.458443
KY,Fleming,14348,909.905,38.368431,-83.706152
KY,Floyd,39451,1024.872,37.558283,-82.740337
KY,Franklin,49285,549.099,38.234919,-84.868786
KY,Fulton,6813,597.299,36.55262,-89.187723
KY,Gallatin,8589,271.218,38.760184,-84.862114
KY,Garrard,16912,605.916,37.630162,-84.545856
KY,Grant,24662,675.38,38.64921,-84.625946
KY,Graves,37121,1442.074,36.723344,-88.649897
KY,Grayson,25746,1323.563,37.458577,-86.344011
KY,Green,11258,747.961,37.269637,-85.561403
KY,Greenup,36910,918.02,38.563596,-82.933833
KY,Hancock,8565,515.114,37.843389,-86.792773
KY,Hardin,105543,1632.045,37.695836,-85.963183
KY,Harlan,29278,1212.504,36.859223,-83.221497
KY,Harrison,18846,802.538,38.443489,-84.332796
KY,Hart,18199,1082.227,37.313856,-85.881995
KY,Henderson,46250,1207.659,37.792542,-87.572577
KY,Henry,15416,754.003,38.451561,-85.120079
KY,Hickman,4902,655.37,36.675916,-88.97202
KY,Hopkins,46920,1435.929,37.31107,-87.542196
KY,Jackson,13494,897.463,37.40332,-84.020686
KY,Jefferson,741096,1029.993,38.189533,-85.657624
KY,Jessamine,48586,451.954,37.873291,-84.58396
KY,Johnson,23356,684.107,37.84926,-82.830639
KY,Kenton,159720,425.656,38.930477,-84.533492
KY,Knott,16346,913.881,37.354703,-82.949138
KY,Knox,31883,1004.263,36.887476,-83.85563
KY,Larue,14193,682.794,37.545518,-85.697209
KY,Laurel,58849,1149.164,37.113268,-84.119395
KY,Lawrence,15860,1087.971,38.074459,-82.738305
KY,Lee,7887,547.153,37.605383,-83.718497
KY,Leslie,11310,1047.513,37.087846,-83.388616
KY,Letcher,24519,878.091,37.118503,-82.861175
KY,Lewis,13870,1283.033,38.532051,-83.373303
KY,Lincoln,24742,871.727,37.457257,-84.658074
KY,Livingston,9519,886.64,37.209517,-88.363426
KY,Logan,26835,1442.703,36.859829,-86.881436
KY,Lyon,8314,664.406,37.023976,-88.083391
KY,McCracken,65565,694.558,37.053688,-88.712378
KY,McCreary,18306,1116.147,36.731136,-84.491052
KY,McLean,9531,663.641,37.530575,-87.262931
KY,Madison,82916,1148.03,37.723528,-84.277008
KY,Magoffin,13333,800.714,37.698954,-83.069716
KY,Marion,19820,898.359,37.552247,-85.269242
KY,Marshall,31448,881.038,36.882017,-88.332752
KY,Martin,12929,597.248,37.796774,-82.506623
KY,Mason,17490,638.206,38.594068,-83.828052
KY,Meade,28602,840.458,37.967476,-86.200863
KY,Menifee,6306,533.367,37.950715,-83.597345
KY,Mercer,21331,656.074,37.812085,-84.879695
KY,Metcalfe,10099,754.178,36.990394,-85.629554
KY,Monroe,10963,860.023,36.714077,-85.713508
KY,Montgomery,26499,515.037,38.038138,-83.912338
KY,Morgan,13923,994.006,37.92294,-83.258944
KY,Muhlenberg,31499,1241.641,37.213816,-87.134092
KY,Nelson,43437,1098.352,37.803188,-85.465955
KY,Nicholas,7135,509.796,38.337132,-84.025554
KY,Ohio,23842,1544.221,37.477859,-86.844871
KY,Oldham,60316,508.763,38.400046,-85.456059
KY,Owen,10841,917.495,38.499603,-84.841509
KY,Owsley,4755,513.569,37.423452,-83.691566
KY,Pendleton,14877,730.164,38.690765,-84.354041
KY,Perry,28712,887.354,37.241282,-83.217772
KY,Pike,65024,2042.644,37.482067,-82.402869
KY,Powell,12613,466.513,37.810379,-83.826985
KY,Pulaski,63063,1753.821,37.108312,-84.579986
KY,Robertson,2282,259.253,38.513826,-84.063757
KY,Rockcastle,17056,823.865,37.36122,-84.314419
KY,Rowan,23333,741.426,38.205894,-83.425969
KY,Russell,17565,732.644,36.989127,-85.058976
KY,Scott,47173,739.268,38.289882,-84.579376
KY,Shelby,42074,998.885,38.239426,-85.22836
KY,Simpson,17327,612.443,36.740863,-86.581464
KY,Spencer,17061,496.391,38.026976,-85.321525
KY,Taylor,24512,716.954,37.365106,-85.326698
KY,Todd,12460,976.572,36.840338,-87.183642
KY,Trigg,14339,1246.638,36.807681,-87.858652
KY,Trimble,8809,404.6,38.618193,-85.355171
KY,Union,15007,941.142,37.658029,-87.95165
KY,Warren,113792,1418.185,36.995634,-86.423579
KY,Washington,11717,780.108,37.754209,-85.175416
KY,Wayne,20813,1253.972,36.802011,-84.83044
KY,Webster,13621,869.343,37.520021,-87.685095
KY,Whitley,35637,1152.851,36.758021,-84.14455
KY,Wolfe,7355,576.925,37.743774,-83.495068
KY,Woodford,24939,497.371,38.042789,-84.748147
LA,Acadia,61773,1702.799,30.291497,-92.411037
LA,Allen,25764,1983.811,30.652744,-92.819605
LA,Ascension,107215,784.212,30.202946,-90.910023
LA,Assumption,23421,944.13,29.899884,-91.050528
LA,Avoyelles,42073,2242.268,31.085094,-91.993798
LA,Beauregard,35654,3019.501,30.645018,-93.340253
LA,Bienville,14353,2129.153,32.344268,-93.061513
LA,Bossier,116979,2246.089,32.696202,-93.617977
LA,Caddo,254969,2426.362,32.577195,-93.882423
LA,Calcasieu,192768,2834.157,30.229559,-93.358015
LA,Caldwell,10132,1400.481,32.101244,-92.11418
LA,Cameron,6839,5015.95,29.871989,-93.165437
LA,Catahoula,10407,1915.091,31.666517,-91.846703
LA,Claiborne,17195,1987.599,32.827585,-92.991125
LA,Concordia,20822,1935.502,31.469806,-91.626314
LA,De Soto,26656,2316.973,32.059248,-93.740797
LA,East Baton Rouge,440171,1217.903,30.544002,-91.093174
LA,East Carroll,7759,1145.893,32.73017,-91.234141
LA,East Feliciana,20267,1180.459,30.839784,-91.043434
LA,Evangeline,33984,1760.218,30.720693,-92.404086
LA,Franklin,20767,1645.776,32.138279,-91.672101
LA,Grant,22309,1721.444,31.597787,-92.561716
LA,Iberia,73240,2669.056,29.606013,-91.842706
LA,Iberville,33387,1690.895,30.288394,-91.36315
LA,Jackson,16274,1502.911,32.30448,-92.556672
LA,Jefferson,432552,1723.437,29.5033,-90.036231
LA,Jefferson Davis,31594,1705.65,30.269529,-92.816221
LA,Lafayette,221578,697.247,30.206507,-92.06417
LA,Lafourche,96318,3818.438,29.491993,-90.394849
LA,La Salle,14890,1715.591,31.680836,-92.161809
LA,Lincoln,46735,1223.704,32.601148,-92.662082
LA,Livingston,128026,1820.363,30.440419,-90.727474
LA,Madison,12093,1685.822,32.365824,-91.240729
LA,Morehouse,27979,2087.749,32.820008,-91.800399
LA,Natchitoches,39566,3364.376,31.734982,-93.086106
LA,Orleans,343829,907.044,30.068636,-89.939007
LA,Ouachita,153720,1636.226,32.477495,-92.154798
LA,Plaquemines,23042,6649.014,29.402337,-89.298489
LA,Pointe Coupee,22802,1529.938,30.708319,-91.604621
LA,Rapides,131613,3526.676,31.193204,-92.535953
LA,Red River,9091,1042.066,32.101213,-93.34905
LA,Richland,20725,1462.089,32.418121,-91.758375
LA,Sabine,24233,2620.082,31.560209,-93.559228
LA,St. Bernard,35897,5589.381,29.91811,-89.263494
LA,St. Charles,52780,1063.524,29.913833,-90.359314
LA,St. Helena,11203,1060.569,30.821423,-90.70935
LA,St. James,22102,668.11,30.02482,-90.793956
LA,St. John the Baptist,45924,900.376,30.117471,-90.504677
LA,St. Landry,83384,2431.952,30.583441,-91.989275
LA,St. Martin,52160,2114.699,30.121433,-91.611481
LA,St. Mary,54650,2899.292,29.629349,-91.463804
LA,St. Tammany,233740,2911.635,30.410022,-89.951962
LA,Tangipahoa,121097,2132.255,30.621581,-90.406633
LA,Tensas,5252,1660.676,32.001489,-91.342576
LA,Terrebonne,111860,5392.543,29.333266,-90.844191
LA,Union,22721,2344.984,32.829349,-92.37565
LA,Vermilion,57999,3993.942,29.786872,-92.29009
LA,Vernon,52334,3474.43,31.110563,-93.18152
LA,Washington,47168,1750.533,30.852144,-90.046253
LA,Webster,41207,1592.428,32.732152,-93.339825
LA,West Baton Rouge,23788,527.901,30.464052,-91.309808
LA,West Carroll,11604,933.865,32.79248,-91.451998
LA,West Feliciana,15625,1103.342,30.872701,-91.421008
LA,Winn,15313,2478.16,31.941187,-92.641269
ME,Androscoggin,107702,1287.537,44.167681,-70.207435
ME,Aroostook,71870,17683.319,46.727057,-68.64941
ME,Cumberland,281674,3153.213,43.808348,-70.330375
ME,Franklin,30768,4515.589,44.973012,-70.444727
ME,Hancock,54418,6073.355,44.564906,-68.370703
ME,Kennebec,122151,2463.531,44.417012,-69.765764
ME,Knox,39736,2962.806,44.042045,-69.038515
ME,Lincoln,34457,1811.964,43.994265,-69.514029
ME,Oxford,57833,5635.078,44.494585,-70.734688
ME,Penobscot,153923,9212.796,45.390602,-68.657487
ME,Piscataquis,17535,11338.881,45.917678,-69.104548
ME,Sagadahoc,35293,958.399,43.916694,-69.843994
ME,Somerset,52228,10602.195,45.507482,-69.97604
ME,Waldo,38786,2208.629,44.505361,-69.139678
ME,Washington,32856,8437.277,44.967009,-67.609354
ME,York,197131,3288.544,43.427239,-70.670402
MD,Allegany,75087,1113.518,39.612309,-78.703108
MD,Anne Arundel,537656,1522.396,38.993374,-76.560511
MD,Baltimore,805029,1765.739,39.443167,-76.616569
MD,Calvert,88737,893.731,38.521358,-76.525864
MD,Caroline,33066,844.082,38.871531,-75.831631
MD,Carroll,167134,1172.455,39.563189,-77.015512
MD,Cecil,101108,1082.194,39.562352,-75.941584
MD,Charles,146551,1665.28,38.472853,-77.015427
MD,Dorchester,32618,2545.969,38.429196,-76.047433
MD,Frederick,233385,1728.502,39.470427,-77.397627
MD,Garrett,30097,1698.352,39.529871,-79.269416
MD,Harford,244826,1363.999,39.537429,-76.299789
MD,Howard,287085,656.288,39.252264,-76.924406
MD,Kent,20197,1070.819,39.239177,-76.1242
MD,Montgomery,971777,1312.989,39.137382,-77.203063
MD,Prince George's,863420,1291.98,38.82588,-76.847272
MD,Queen Anne's,47798,1322.686,39.040693,-76.082405
MD,St. Mary's,105151,1979.402,38.222666,-76.534271
MD,Somerset,26470,1580.805,38.07445,-75.853323
MD,Talbot,37782,1234.92,38.749427,-76.17913
MD,Washington,147430,1210.413,39.603621,-77.814671
MD,Wicomico,98733,1036.613,38.367389,-75.632206
MD,Worcester,51454,1799.676,38.222133,-75.309932
MD,Baltimore [9],620961,238.412,39.300214,-76.610516
MA,Barnstable,215888,3381.326,41.798819,-70.211083
MA,Berkshire,131219,2451.238,42.375314,-73.213948
MA,Bristol,548285,1790.265,41.748576,-71.087062
MA,Dukes,16535,1271.584,41.380939,-70.701536
MA,Essex,743159,2145.737,42.642711,-70.865107
MA,Franklin,71372,1876.64,42.583791,-72.591655
MA,Hampden,463490,1642.703,42.136198,-72.635648
MA,Hampshire,158080,1412.086,42.339459,-72.663694
MA,Middlesex,1503085,2193.875,42.479477,-71.396507
MA,Nantucket,10172,786.464,41.305878,-70.14191
MA,Norfolk,670850,1150.853,42.169703,-71.179875
MA,Plymouth,494919,2831.511,41.987196,-70.741942
MA,Suffolk,722023,311.368,42.33196,-71.020173
MA,Worcester,798552,4090.094,42.311693,-71.940282
MI,Alcona,10942,4637.588,44.682535,-82.83408
MI,Alger,9601,13073.574,47.080077,-86.564108
MI,Allegan,111408,4748.195,42.595788,-86.634745
MI,Alpena,29598,4389.828,44.894954,-83.426574
MI,Antrim,23580,1558.577,45.005457,-85.175625
MI,Arenac,15899,1762.98,44.03687,-83.740675
MI,Baraga,8860,2768.104,46.696068,-88.356022
MI,Barry,59173,1494.53,42.582811,-85.31455
MI,Bay,107771,1633.55,43.699711,-83.978701
MI,Benzie,17525,2226.269,44.648621,-86.494317
MI,Berrien,156813,4095.993,41.792639,-86.741822
MI,Branch,45248,1345.954,41.918585,-85.066523
MI,Calhoun,136146,1860.526,42.24299,-85.012385
MI,Cass,52293,1316.535,41.91624,-85.999457
MI,Charlevoix,25949,3601.285,45.513164,-85.450392
MI,Cheboygan,26152,2293.131,45.47612,-84.495271
MI,Chippewa,38520,6988.799,46.321819,-84.52063
MI,Clare,30926,1490.122,43.991137,-84.838325
MI,Clinton,75382,1488.098,42.950455,-84.591695
MI,Crawford,14074,1458.79,44.680208,-84.611132
MI,Delta,37069,5157.506,45.805101,-86.901373
MI,Dickinson,26168,2012.551,46.012823,-87.866119
MI,Eaton,107759,1500.724,42.589614,-84.846524
MI,Emmet,32694,2284.362,45.590094,-84.986822
MI,Genesee,425790,1682.423,43.021077,-83.706372
MI,Gladwin,25692,1336.252,43.98975,-84.389816
MI,Gogebic,16427,3823.712,46.488054,-89.788314
MI,Grand Traverse,86986,1557.398,44.718688,-85.553848
MI,Gratiot,42476,1480.465,43.292326,-84.60469
MI,Hillsdale,46688,1572.139,41.864475,-84.642409
MI,Houghton,36628,3888.869,46.998305,-88.652066
MI,Huron,33118,5534.294,43.907616,-82.857045
MI,Ingham,280895,1452.238,42.603534,-84.373811
MI,Ionia,63905,1502.313,42.94465,-85.073766
MI,Iosco,25887,4895.226,44.329482,-82.849447
MI,Iron,11817,3137.019,46.170249,-88.540409
MI,Isabella,70311,1496.186,43.645233,-84.839425
MI,Jackson,160248,1873.846,42.248474,-84.420868
MI,Kalamazoo,250331,1502.963,42.246266,-85.532854
MI,Kalkaska,17153,1478.122,44.678881,-85.088992
MI,Kent,602622,2258.324,43.032497,-85.547446
MI,Keweenaw,2156,15452.359,47.681981,-88.148802
MI,Lake,11539,1487.378,43.995187,-85.8114
MI,Lapeer,88319,1716.76,43.088633,-83.224325
MI,Leelanau,21708,6558.347,45.146182,-86.051574
MI,Lenawee,99892,1972.039,41.895915,-84.066853
MI,Livingston,180967,1516.189,42.602532,-83.911718
MI,Luce,6631,4953.321,46.940602,-85.582368
MI,Mackinac,11113,5440.643,46.167981,-85.303756
MI,Macomb,840978,1478.496,42.671467,-82.910869
MI,Manistee,24733,3316.645,44.350385,-86.602967
MI,Marquette,67077,8869.517,46.656597,-87.584028
MI,Mason,28705,3217.909,43.996636,-86.750814
MI,Mecosta,42798,1479.386,43.635295,-85.332751
MI,Menominee,24029,3465.953,45.544174,-87.509892
MI,Midland,83629,1367.69,43.648378,-84.37922
MI,Missaukee,14849,1486.211,44.325424,-85.085471
MI,Monroe,152021,1761.241,41.916097,-83.487106
MI,Montcalm,63342,1866.933,43.312782,-85.149468
MI,Montmorency,9765,1457.263,45.024134,-84.130107
MI,Muskegon,172188,3781.446,43.289258,-86.751892
MI,Newaygo,48460,2231.764,43.562709,-85.791423
MI,Oakland,1202362,2349.881,42.660452,-83.38421
MI,Oceana,26570,3382.394,43.647255,-86.807575
MI,Ogemaw,21699,1489.119,44.33328,-84.128073
MI,Ontonagon,6780,9688.676,47.216604,-89.500461
MI,Osceola,23528,1484.313,43.997552,-85.322283
MI,Oscoda,8640,1480.39,44.685121,-84.124894
MI,Otsego,24164,1362.824,45.021794,-84.576597
MI,Ottawa,263801,4225.331,42.942346,-86.655342
MI,Presque Isle,13376,6663.408,45.489515,-83.384019
MI,Roscommon,24449,1502.274,44.339517,-84.611272
MI,Saginaw,200169,2113.341,43.328267,-84.05541
MI,St. Clair,163040,2166.542,42.928804,-82.668914
MI,St. Joseph,61295,1349.467,41.911488,-85.52287
MI,Sanilac,43114,4117.93,43.449155,-82.642815
MI,Schoolcraft,8485,4879.485,46.020758,-86.199352
MI,Shiawassee,70648,1401.047,42.951545,-84.146352
MI,Tuscola,55729,2367.018,43.487902,-83.436618
MI,Van Buren,76258,2822.821,42.283986,-86.305697
MI,Washtenaw,344791,1871.057,42.252327,-83.844634
MI,Wayne,1820584,1742.227,42.284664,-83.261953
MI,Wexford,32735,1490.449,44.331375,-85.570046
MN,Aitkin,16202,5167.784,46.602446,-93.41976
MN,Anoka,330844,1155.421,45.27411,-93.242723
MN,Becker,32504,3743.007,46.937629,-95.741757
MN,Beltrami,44442,7914.371,47.878825,-94.986698
MN,Benton,38451,1069.815,45.701227,-94.00144
MN,Big Stone,5269,1367.818,45.419925,-96.402226
MN,Blue Earth,64013,1982.876,44.038225,-94.064071
MN,Brown,25893,1601.815,44.246542,-94.733647
MN,Carlton,35386,2266.973,46.603818,-92.671044
MN,Carver,91042,974.127,44.821381,-93.800575
MN,Cass,28567,6252.51,46.951427,-94.333773
MN,Chippewa,12441,1522.333,45.028625,-95.564108
MN,Chisago,53887,1145.834,45.505444,-92.903849
MN,Clay,58999,2726.346,46.898377,-96.494901
MN,Clearwater,8695,2667.004,47.575873,-95.371117
MN,Cook,5176,8649.394,47.538571,-90.29019
MN,Cottonwood,11687,1679.765,44.010711,-95.18313
MN,Crow Wing,62500,2995.391,46.491114,-94.071213
MN,Dakota,398552,1519.978,44.670893,-93.062481
MN,Dodge,20087,1138.52,44.020706,-92.869353
MN,Douglas,36009,1864.804,45.936429,-95.46061
MN,Faribault,14553,1869.724,43.676522,-93.947234
MN,Fillmore,20866,2232.802,43.67727,-92.093681
MN,Freeborn,31255,1871.062,43.674202,-93.350289
MN,Goodhue,46183,2021.226,44.406178,-92.716
MN,Grant,6018,1490.493,45.930743,-96.010699
MN,Hennepin,1152425,1570.949,45.006064,-93.475185
MN,Houston,19027,1473.281,43.66699,-91.501556
MN,Hubbard,20428,2588.847,47.095551,-94.91329
MN,Isanti,37816,1169.785,45.562431,-93.296339
MN,Itasca,45058,7583.388,47.490843,-93.613128
MN,Jackson,10266,1862.81,43.673025,-95.149704
MN,Kanabec,16239,1382.232,45.94776,-93.297788
MN,Kandiyohi,42239,2233.481,45.152714,-95.004981
MN,Kittson,4552,2858.32,48.77604,-96.780349
MN,Koochiching,13311,8168.879,48.24549,-93.782842
MN,Lac qui Parle,7259,2015.038,44.999855,-96.176836
MN,Lake,10866,7745.695,47.517111,-91.411704
MN,Lake of the Woods,4045,4596.362,48.7681,-94.904634
MN,Le Sueur,27703,1227.155,44.373397,-93.73018
MN,Lincoln,5896,1420.433,44.408238,-96.272032
MN,Lyon,25857,1869.11,44.409195,-95.847268
MN,McLeod,36651,1309.311,44.821644,-94.27232
MN,Mahnomen,5413,1509.734,47.325842,-95.810703
MN,Marshall,9439,4695.405,48.362728,-96.357761
MN,Martin,20840,1889.593,43.677118,-94.537198
MN,Meeker,23300,1669.96,45.123156,-94.527346
MN,Mille Lacs,26097,1765.287,45.929043,-93.632996
MN,Morrison,33198,2987.26,46.020484,-94.266619
MN,Mower,39163,1842.95,43.666249,-92.759514
MN,Murray,8725,1863.502,44.015594,-95.761581
MN,Nicollet,32727,1208.857,44.35882,-94.245685
MN,Nobles,21378,1871.415,43.677686,-95.763132
MN,Norman,6852,2270.721,47.32947,-96.463807
MN,Olmsted,144248,1695.921,44.00343,-92.406722
MN,Otter Tail,57303,5761.528,46.405725,-95.714578
MN,Pennington,13930,1601.261,48.069247,-96.037725
MN,Pine,29750,3715.489,46.10094,-92.763094
MN,Pipestone,9596,1206.835,44.015361,-96.257015
MN,Polk,31600,5174.241,47.774254,-96.400027
MN,Pope,10995,1857.29,45.589623,-95.446705
MN,Ramsey,508640,440.5,45.01525,-93.100141
MN,Red Lake,4089,1120.157,47.865487,-96.08718
MN,Redwood,16059,2283.722,44.403536,-95.254242
MN,Renville,15730,2556.567,44.723697,-94.955617
MN,Rice,64142,1336.266,44.350943,-93.298503
MN,Rock,9687,1250.251,43.669587,-96.263238
MN,Roseau,15629,4346.355,48.761066,-95.82153
MN,St. Louis,200226,17766.029,47.583852,-92.463645
MN,Scott,129928,954.107,44.651932,-93.534553
MN,Sherburne,88499,1168.197,45.443171,-93.775092
MN,Sibley,15226,1555.342,44.575734,-94.230123
MN,Stearns,150642,3599.958,45.555235,-94.610482
MN,Steele,36576,1119.752,44.015261,-93.220453
MN,Stevens,9726,1490.069,45.593461,-95.992315
MN,Swift,9783,1948.158,45.27545,-95.690398
MN,Todd,24895,2536.893,46.066569,-94.900576
MN,Traverse,3558,1517.352,45.76984,-96.475049
MN,Wabasha,21676,1423.501,44.289693,-92.233341
MN,Wadena,13843,1406.968,46.586784,-94.988331
MN,Waseca,19136,1121.396,44.01846,-93.589844
MN,Washington,238136,1094.904,45.037929,-92.890117
MN,Watonwan,11211,1138.895,43.978366,-94.614128
MN,Wilkin,6576,1945.521,46.362335,-96.476657
MN,Winona,51461,1661.69,43.982268,-91.776708
MN,Wright,124700,1849.946,45.175091,-93.966397
MN,Yellow Medicine,10438,1976.749,44.715736,-95.862756
MS,Adams,32297,1262.742,31.486218,-91.351781
MS,Alcorn,37057,1039.518,34.886648,-88.581014
MS,Amite,13131,1894.829,31.203933,-90.795542
MS,Attala,19564,1908.016,33.09047,-89.588622
MS,Benton,8729,1058.411,34.810773,-89.200029
MS,Bolivar,34145,2346.057,33.799278,-90.884476
MS,Calhoun,14962,1522.808,33.936634,-89.337114
MS,Carroll,10597,1643.568,33.440795,-89.918887
MS,Chickasaw,17392,1305.991,33.921654,-88.945808
MS,Choctaw,8547,1087.42,33.345964,-89.251332
MS,Claiborne,9604,1298.111,31.97281,-90.915424
MS,Clarke,16732,1796.247,32.048448,-88.685964
MS,Clay,20634,1077.449,33.661734,-88.783326
MS,Coahoma,26151,1510.358,34.22867,-90.603165
MS,Copiah,29449,2018.804,31.866915,-90.448758
MS,Covington,19568,1074.666,31.633331,-89.548897
MS,DeSoto,161252,1287.253,34.874266,-89.99324
MS,Forrest,74934,1217.898,31.18858,-89.259447
MS,Franklin,8118,1467.91,31.477798,-90.895884
MS,George,22578,1252.655,30.855431,-88.642268
MS,Greene,14400,1861.415,31.212846,-88.634811
MS,Grenada,21906,1163.95,33.770031,-89.80274
MS,Hancock,43929,1430.969,30.391437,-89.47985
MS,Harrison,187105,2528.271,30.416536,-89.083376
MS,Hinds,245285,2272.176,32.267924,-90.4659
MS,Holmes,19198,1980.35,33.125942,-90.091197
MS,Humphreys,9375,1116.89,33.132978,-90.523911
MS,Issaquena,1406,1143.289,32.754977,-90.988552
MS,Itawamba,23401,1399.759,34.281075,-88.363127
MS,Jackson,139668,2702.382,30.458491,-88.619991
MS,Jasper,17062,1754.643,32.016989,-89.11943
MS,Jefferson,7726,1365.609,31.733633,-91.043878
MS,Jefferson Davis,12487,1059.663,31.564734,-89.826626
MS,Jones,67761,1812.236,31.621044,-89.167262
MS,Kemper,10456,1986.586,32.750136,-88.625631
MS,Lafayette,47351,1759.139,34.349298,-89.485903
MS,Lamar,55658,1296.117,31.197135,-89.514952
MS,Lauderdale,80261,1852.239,32.403998,-88.660449
MS,Lawrence,12929,1128.638,31.550009,-90.10753
MS,Leake,23805,1516.378,32.753268,-89.522568
MS,Lee,82910,1173.717,34.288965,-88.680887
MS,Leflore,32317,1570.515,33.54979,-90.294934
MS,Lincoln,34869,1523.365,31.535216,-90.453566
MS,Lowndes,59779,1337.638,33.471424,-88.439723
MS,Madison,95203,1921.201,32.63437,-90.03416
MS,Marion,27088,1420.919,31.230126,-89.821736
MS,Marshall,37144,1838.285,34.76619,-89.504231
MS,Monroe,36989,1999.719,33.89003,-88.485038
MS,Montgomery,10925,1056.427,33.500714,-89.639625
MS,Neshoba,29676,1480.472,32.752518,-89.119274
MS,Newton,21720,1501.162,32.40197,-89.118412
MS,Noxubee,11545,1812.94,33.10627,-88.565787
MS,Oktibbeha,47671,1196.399,33.422313,-88.876151
MS,Panola,34707,1826.283,34.365205,-89.963065
MS,Pearl River,55834,2120.962,30.773791,-89.586832
MS,Perry,12250,1684.014,31.169307,-88.988755
MS,Pike,40404,1063.691,31.177517,-90.397725
MS,Pontotoc,29957,1297.639,34.227081,-89.037239
MS,Prentiss,25276,1083.132,34.620866,-88.52224
MS,Quitman,8223,1052.653,34.25264,-90.290525
MS,Rankin,141617,2087.752,32.262057,-89.946552
MS,Scott,28264,1580.904,32.427127,-89.533209
MS,Sharkey,4916,1126.956,32.89249,-90.827388
MS,Simpson,27503,1529.309,31.902503,-89.917707
MS,Smith,16491,1650.526,32.019034,-89.494973
MS,Stone,17786,1160.513,30.790184,-89.112297
MS,Sunflower,29450,1830.934,33.605529,-90.59509
MS,Tallahatchie,15378,1689.039,33.955891,-90.172833
MS,Tate,28886,1064.413,34.649553,-89.943105
MS,Tippah,22232,1191.277,34.763618,-88.918819
MS,Tishomingo,19593,1151.299,34.737699,-88.236067
MS,Tunica,10778,1245.076,34.652201,-90.37177
MS,Union,27134,1079.782,34.489101,-89.0023
MS,Walthall,15443,1047.406,31.164492,-90.103431
MS,Warren,48773,1602.047,32.357005,-90.851791
MS,Washington,51137,1971.567,33.273131,-90.94443
MS,Wayne,20747,2107.001,31.64476,-88.682057
MS,Webster,10253,1096.169,33.612048,-89.283836
MS,Wilkinson,9878,1781.306,31.160249,-91.325567
MS,Winston,19198,1580.115,33.078724,-89.037391
MS,Yalobusha,12678,1282.055,34.030669,-89.703793
MS,Yazoo,28065,2419.738,32.765675,-90.387928
MO,Adair,25607,1474.83,40.190666,-92.603592
MO,Andrew,17291,1130.346,39.988863,-94.803551
MO,Atchison,5685,1424.825,40.431846,-95.437555
MO,Audrain,25529,1804.761,39.21448,-91.843415
MO,Barry,35597,2048.601,36.699378,-93.834326
MO,Barton,12402,1545.503,37.500799,-94.344089
MO,Bates,17049,2205.065,38.257217,-94.339246
MO,Benton,19056,1949.088,38.301036,-93.287942
MO,Bollinger,12363,1608.897,37.318349,-90.024601
MO,Boone,162642,1789.633,38.989657,-92.310779
MO,Buchanan,89201,1073.958,39.66037,-94.808173
MO,Butler,42794,1810.38,36.71518,-90.40313
MO,Caldwell,9424,1112.755,39.658998,-93.979179
MO,Callaway,44332,2194.646,38.835966,-91.924089
MO,Camden,44002,1835.381,38.031995,-92.765138
MO,Cape Girardeau,75674,1518.573,37.383882,-89.684908
MO,Carroll,9295,1816.595,39.427375,-93.500227
MO,Carter,6265,1318.358,36.944783,-90.945626
MO,Cass,99478,1819.435,38.647159,-94.354242
MO,Cedar,13982,1291.509,37.733655,-93.850014
MO,Chariton,7831,1985.905,39.517969,-92.961621
MO,Christian,77422,1460.256,36.969739,-93.187614
MO,Clark,7139,1325.621,40.407275,-91.729472
MO,Clay,221939,1058.454,39.315551,-94.421502
MO,Clinton,20743,1096.814,39.608723,-94.395803
MO,Cole,75990,1040.981,38.506847,-92.271404
MO,Cooper,17601,1474.172,38.845386,-92.812323
MO,Crawford,24696,1926.313,37.966561,-91.313933
MO,Dade,7883,1311.194,37.43235,-93.854878
MO,Dallas,16777,1405.975,37.683583,-93.033812
MO,Daviess,8433,1473.82,39.962839,-93.970053
MO,DeKalb,12892,1102.87,39.894665,-94.40719
MO,Dent,15657,1954.162,37.60325,-91.495916
MO,Douglas,13684,2109.795,36.946517,-92.515892
MO,Dunklin,31953,1417.201,36.153025,-90.062254
MO,Franklin,101492,2410.463,38.408313,-91.07341
MO,Gasconade,15222,1358.296,38.441183,-91.50578
MO,Gentry,6738,1273.539,40.209379,-94.40411
MO,Greene,275174,1755.701,37.258196,-93.340641
MO,Grundy,10261,1134.484,40.112541,-93.565054
MO,Harrison,8957,1881.38,40.34562,-93.992582
MO,Henry,22272,1896.725,38.386491,-93.792628
MO,Hickory,9627,1066.319,37.9367,-93.322835
MO,Holt,4912,1218.209,40.095724,-95.219072
MO,Howard,10144,1221.256,39.143365,-92.695926
MO,Howell,40400,2404.476,36.774369,-91.887368
MO,Iron,10630,1429.84,37.62596,-90.699627
MO,Jackson,674158,1596.072,39.007233,-94.342507
MO,Jasper,117404,1660.904,37.200865,-94.338869
MO,Jefferson,218733,1720.489,38.257414,-90.543138
MO,Johnson,52595,2157.956,38.74588,-93.805999
MO,Knox,4131,1312.683,40.136776,-92.146809
MO,Laclede,35571,1989.143,37.65969,-92.594832
MO,Lafayette,33381,1654.855,39.068705,-93.802639
MO,Lawrence,38634,1588.64,37.106135,-93.833262
MO,Lewis,10211,1322.954,40.084559,-91.728803
MO,Lincoln,52566,1658.792,39.058568,-90.957771
MO,Linn,12761,1609.357,39.86444,-93.108019
MO,Livingston,15195,1394.882,39.778587,-93.548201
MO,McDonald,23083,1397.767,36.630218,-94.343956
MO,Macon,15566,2104.031,39.829795,-92.56434
MO,Madison,12226,1288.776,37.473235,-90.345453
MO,Maries,9176,1372.506,38.162615,-91.923601
MO,Marion,28781,1150.742,39.807538,-91.635379
MO,Mercer,3785,1178.73,40.421414,-93.567631
MO,Miller,24748,1553.972,38.21672,-92.429871
MO,Mississippi,14358,1110.49,36.826264,-89.295929
MO,Moniteau,15607,1084.871,38.633037,-92.583642
MO,Monroe,8840,1735.715,39.49827,-92.006458
MO,Montgomery,12236,1403.794,38.935162,-91.465437
MO,Morgan,20565,1590.306,38.420807,-92.874835
MO,New Madrid,18956,1804.12,36.594261,-89.655949
MO,Newton,58114,1622.851,36.908017,-94.334741
MO,Nodaway,23370,2273.688,40.360484,-94.883281
MO,Oregon,10881,2050.09,36.684867,-91.402902
MO,Osage,13878,1581.061,38.464254,-91.859504
MO,Ozark,9723,1956.042,36.649643,-92.45858
MO,Pemiscot,18296,1329.786,36.209916,-89.785942
MO,Perry,18971,1253.969,37.71113,-89.802125
MO,Pettis,42201,1777.429,38.727367,-93.285207
MO,Phelps,45156,1746.487,37.866326,-91.790349
MO,Pike,18516,1773.405,39.344178,-91.171042
MO,Platte,89322,1105.419,39.378696,-94.761472
MO,Polk,31137,1663.836,37.616761,-93.400817
MO,Pulaski,52274,1428.327,37.824835,-92.207022
MO,Putnam,4979,1345.787,40.478606,-93.014531
MO,Ralls,10167,1253.124,39.553455,-91.524787
MO,Randolph,25414,1263.461,39.441601,-92.492725
MO,Ray,23494,1486.488,39.308401,-93.995746
MO,Reynolds,6696,2109.32,37.360857,-90.969516
MO,Ripley,14100,1635.942,36.648902,-90.86706
MO,St. Charles,360485,1534.846,38.781102,-90.674915
MO,St. Clair,9805,1818.304,38.039069,-93.773077
MO,Ste. Genevieve,18145,1312.54,37.89018,-90.18117
MO,St. Francois,65359,1177.598,37.810707,-90.473868
MO,St. Louis,998954,1354.61,38.640702,-90.445954
MO,Saline,23370,1986.304,39.13584,-93.204164
MO,Schuyler,4431,798.128,40.469361,-92.519016
MO,Scotland,4843,1137.77,40.447686,-92.142824
MO,Scott,39191,1102.965,37.047793,-89.568098
MO,Shannon,8441,2600.345,37.15198,-91.398364
MO,Shelby,6373,1300.995,39.797531,-92.088719
MO,Stoddard,29968,2147.155,36.855428,-89.941735
MO,Stone,32202,1322.907,36.747857,-93.467782
MO,Sullivan,6714,1687.388,40.209587,-93.109783
MO,Taney,51675,1687.74,36.649827,-93.042819
MO,Texas,26008,3054.176,37.314257,-91.964478
MO,Vernon,21159,2167.377,37.850196,-94.341597
MO,Warren,32513,1133.819,38.761902,-91.159307
MO,Washington,25195,1974.835,37.942315,-90.897056
MO,Wayne,13521,2004.817,37.113825,-90.460868
MO,Webster,36202,1537.841,37.280804,-92.87608
MO,Worth,2171,691.059,40.480482,-94.419129
MO,Wright,18815,1769.313,37.267636,-92.48001
MO,St. Louis [9],319294,171.026,38.635699,-90.244582
MT,Beaverhead,9246,14431.132,45.133863,-112.892869
MT,Big Horn,12865,12987.782,45.407869,-107.518163
MT,Blaine,6491,10978.38,48.428282,-108.967648
MT,Broadwater,5612,3208.366,46.334476,-111.496103
MT,Carbon,10078,5340.976,45.224475,-109.028551
MT,Carter,1160,8672.003,45.516825,-104.515324
MT,Cascade,81327,7022.712,47.316443,-111.350571
MT,Chouteau,5813,10351.471,47.886837,-110.436189
MT,Custer,11699,9824.388,46.261481,-105.550508
MT,Daniels,1751,3694.616,48.794429,-105.541739
MT,Dawson,8966,6172.384,47.272425,-104.901027
MT,Deer Lodge,9298,1919.704,46.099059,-113.139108
MT,Fallon,2890,4203.696,46.318184,-104.405718
MT,Fergus,11586,11267.522,47.222997,-109.22328
MT,Flathead,90928,13614.115,48.314696,-114.054319
MT,Gallatin,89513,6817.021,45.535559,-111.173443
MT,Garfield,1206,12554.899,47.281174,-106.982212
MT,Glacier,13399,7865.598,48.705671,-112.990502
MT,Golden Valley,884,3046.711,46.380624,-109.174586
MT,Granite,3079,4488.568,46.395358,-113.425683
MT,Hill,16096,7552.467,48.628331,-110.106372
MT,Jefferson,11406,4296.378,46.126557,-112.056771
MT,Judith Basin,2072,4844.881,47.032558,-110.30532
MT,Lake,28746,4283.107,47.642901,-114.083687
MT,Lewis and Clark,63395,9059.04,47.122133,-112.382954
MT,Liberty,2339,3748.17,48.559654,-111.036924
MT,Lincoln,19687,9518.532,48.542232,-115.404343
MT,McCone,1734,6948.481,47.629628,-105.757222
MT,Madison,7691,9331.19,45.319288,-111.917328
MT,Meagher,1891,6202.403,46.585706,-110.921781
MT,Mineral,4223,3168.226,47.155213,-115.06455
MT,Missoula,109299,6781.415,47.027263,-113.892681
MT,Musselshell,4538,4845.627,46.505665,-108.436982
MT,Park,15636,7286.911,45.421905,-110.532798
MT,Petroleum,494,4335.133,47.141917,-108.226575
MT,Phillips,4253,13498.707,48.250155,-107.928833
MT,Pondera,6153,4247.163,48.230312,-112.219928
MT,Powder River,1743,8541.53,45.40889,-105.555259
MT,Powell,7027,6041.525,46.844225,-112.9311
MT,Prairie,1179,4513.225,46.852434,-105.375808
MT,Ravalli,40212,6216.495,46.079298,-114.119065
MT,Richland,9746,5447.487,47.785513,-104.563387
MT,Roosevelt,10425,6136.763,48.282747,-104.99517
MT,Rosebud,9233,13019.888,46.161734,-106.701953
MT,Sanders,11413,7226.025,47.756469,-115.180225
MT,Sheridan,3384,4418.76,48.705523,-104.533913
MT,Silver Bow,34200,1862.337,45.895959,-112.660222
MT,Stillwater,9117,4673.85,45.663496,-109.391752
MT,Sweet Grass,3651,4822.644,45.81306,-109.941312
MT,Teton,6073,5937.596,47.819035,-112.281725
MT,Toole,5324,5039.51,48.645052,-111.733493
MT,Treasure,718,2548.609,46.209636,-107.280494
MT,Valley,7369,13109.976,48.365713,-106.687883
MT,Wheatland,2168,3699.128,46.497047,-109.857147
MT,Wibaux,1017,2304.898,46.962866,-104.274466
MT,Yellowstone,147972,6860.96,45.936987,-108.276656
NE,Adams,31364,1461.35,40.520632,-98.500044
NE,Antelope,6685,2223.742,42.183225,-98.058037
NE,Arthur,460,1860.405,41.570856,-101.697045
NE,Banner,690,1932.824,41.53975,-103.726263
NE,Blaine,478,1850.6,41.92523,-99.990771
NE,Boone,5505,1779.884,41.7054,-98.066794
NE,Box Butte,11308,2791.584,42.215665,-103.087821
NE,Boyd,2099,1410.328,42.894448,-98.773022
NE,Brown,3145,3173.053,42.34939,-99.923176
NE,Buffalo,46102,2526.272,40.855226,-99.074983
NE,Burt,6858,1287.388,41.854179,-96.337746
NE,Butler,8395,1530.194,41.226072,-97.13204
NE,Cass,25241,1465.652,40.909878,-96.140609
NE,Cedar,8852,1931.734,42.604511,-97.256824
NE,Chase,3966,2324.512,40.53039,-101.694192
NE,Cherry,5713,15564.099,42.566985,-101.072622
NE,Cheyenne,9998,3098.661,41.214236,-103.011929
NE,Clay,6542,1485.458,40.523669,-98.05105
NE,Colfax,10515,1078.772,41.574675,-97.089455
NE,Cuming,9139,1488.343,41.915865,-96.788517
NE,Custer,10939,6671.503,41.393893,-99.726866
NE,Dakota,21006,692.616,42.390456,-96.562549
NE,Dawes,9182,3628.746,42.711214,-103.134872
NE,Dawson,24326,2640.319,40.867378,-99.815154
NE,Deuel,1941,1141.44,41.112988,-102.332604
NE,Dixon,6000,1250.706,42.48528,-96.855862
NE,Dodge,36691,1406.362,41.577008,-96.645853
NE,Douglas,517110,878.904,41.297091,-96.154066
NE,Dundy,2008,2385.0,40.180165,-101.681133
NE,Fillmore,5890,1493.193,40.52504,-97.596705
NE,Franklin,3225,1491.844,40.183203,-98.96208
NE,Frontier,2756,2538.393,40.530947,-100.406683
NE,Furnas,4959,1866.458,40.191991,-99.909661
NE,Gage,22311,2227.281,40.255234,-96.683453
NE,Garden,2057,4482.946,41.659381,-102.328229
NE,Garfield,2049,1479.875,41.905572,-98.922998
NE,Gosper,2044,1198.448,40.509838,-99.824078
NE,Grant,614,2028.541,41.915867,-101.756875
NE,Greeley,2538,1477.993,41.5676,-98.530566
NE,Hall,58607,1430.047,40.866023,-98.498004
NE,Hamilton,9124,1416.778,40.877145,-98.021943
NE,Harlan,3423,1486.81,40.178766,-99.403418
NE,Hayes,967,1847.392,40.535786,-101.05558
NE,Hitchcock,2908,1860.846,40.176896,-101.044217
NE,Holt,10435,6261.285,42.459287,-98.784766
NE,Hooker,736,1868.579,41.9187,-101.11681
NE,Howard,6274,1490.778,41.219403,-98.513303
NE,Jefferson,7547,1490.976,40.175736,-97.143103
NE,Johnson,5217,975.735,40.395457,-96.268562
NE,Kearney,6489,1337.338,40.506269,-98.948461
NE,Keith,8368,2874.203,41.194404,-101.644474
NE,Keya Paha,824,2004.439,42.87548,-99.718351
NE,Kimball,3821,2466.718,41.199155,-103.711105
NE,Knox,8701,2951.865,42.634405,-97.891349
NE,Lancaster,285407,2192.117,40.783547,-96.688658
NE,Lincoln,36288,6669.546,41.050322,-100.744481
NE,Logan,763,1479.207,41.542156,-100.443665
NE,Loup,632,1479.139,41.897714,-99.509764
NE,McPherson,539,2227.418,41.596473,-101.060237
NE,Madison,34876,1490.41,41.909929,-97.606856
NE,Merrick,7845,1280.743,41.169801,-98.031051
NE,Morrill,5042,3703.322,41.732205,-102.990599
NE,Nance,3735,1160.912,41.402386,-97.991408
NE,Nemaha,7248,1060.87,40.387448,-95.850954
NE,Nuckolls,4500,1491.364,40.176492,-98.046842
NE,Otoe,15740,1603.251,40.637992,-96.131027
NE,Pawnee,2773,1121.33,40.13785,-96.245225
NE,Perkins,2970,2290.668,40.856065,-101.636443
NE,Phelps,9188,1399.695,40.516365,-99.406557
NE,Pierce,7266,1488.189,42.271413,-97.610992
NE,Platte,32237,1773.078,41.576866,-97.513467
NE,Polk,5406,1141.257,41.187925,-97.570663
NE,Red Willow,11055,1859.627,40.16942,-100.468576
NE,Richardson,8363,1436.336,40.123743,-95.718603
NE,Rock,1526,2620.34,42.413325,-99.45853
NE,Saline,14200,1492.633,40.516802,-97.131755
NE,Sarpy,158840,641.082,41.115064,-96.109125
NE,Saunders,20780,1967.924,41.223152,-96.640923
NE,Scotts Bluff,36970,1930.477,41.851589,-103.70586
NE,Seward,16750,1491.538,40.871944,-97.140383
NE,Sheridan,5469,6396.745,42.507074,-102.389698
NE,Sherman,3152,1480.551,41.218743,-98.972849
NE,Sioux,1311,5354.705,42.483806,-103.742605
NE,Stanton,6129,1116.29,41.904793,-97.174724
NE,Thayer,5228,1489.179,40.173845,-97.596263
NE,Thomas,647,1849.301,41.84862,-100.506911
NE,Thurston,6940,1025.836,42.154061,-96.533943
NE,Valley,4260,1477.48,41.564094,-98.983484
NE,Washington,20234,1018.374,41.533979,-96.224574
NE,Wayne,9595,1148.232,42.210746,-97.126243
NE,Webster,3812,1489.355,40.180646,-98.49859
NE,Wheeler,818,1490.775,41.937859,-98.522289
NE,York,13665,1491.389,40.873056,-97.596742
NV,Churchill,24877,13012.248,39.525701,-118.270419
NV,Clark,1951269,20877.406,36.214236,-115.013819
NV,Douglas,46997,1910.482,38.905129,-119.609019
NV,Elko,48818,44555.422,41.141133,-115.351424
NV,Esmeralda,783,9295.569,37.778966,-117.632382
NV,Eureka,1987,10826.054,39.977788,-116.272208
NV,Humboldt,16528,25013.641,41.407914,-118.127592
NV,Lander,5775,14295.409,39.900211,-117.04724
NV,Lincoln,5345,27549.669,37.634605,-114.863037
NV,Lyon,51980,5242.652,39.022214,-119.197417
NV,Mineral,4772,9875.568,38.516647,-118.416279
NV,Nye,43946,47134.175,37.966379,-116.459047
NV,Pershing,6753,15714.561,40.439639,-118.409477
NV,Storey,4010,682.833,39.438385,-119.524646
NV,Washoe,421407,16944.25,40.703311,-119.710315
NV,White Pine,10030,23042.499,39.417804,-114.900945
NV,Carson City [9],55274,407.26,39.153447,-119.743442
NH,Belknap,60088,1213.621,43.519109,-71.425366
NH,Carroll,47818,2570.393,43.867567,-71.201665
NH,Cheshire,77117,1888.357,42.925455,-72.248217
NH,Coos,33055,4738.99,44.652419,-71.289383
NH,Grafton,89118,4531.303,43.926488,-71.842264
NH,Hillsborough,400721,2310.825,42.911643,-71.723101
NH,Merrimack,146445,2477.186,43.299485,-71.68013
NH,Rockingham,295223,2059.325,42.98936,-71.099437
NH,Strafford,123143,994.559,43.293177,-71.035927
NH,Sullivan,43742,1429.658,43.361188,-72.222084
NJ,Atlantic,274549,1740.023,39.469354,-74.633758
NJ,Bergen,905116,638.875,40.95909,-74.074522
NJ,Burlington,448734,2123.372,39.875786,-74.663006
NJ,Camden,513657,588.685,39.802352,-74.961251
NJ,Cape May,97265,1606.871,39.086143,-74.847716
NJ,Cumberland,156898,1755.03,39.328387,-75.121644
NJ,Essex,783969,335.742,40.787217,-74.246136
NJ,Gloucester,288288,873.286,39.721019,-75.143708
NJ,Hudson,634266,161.39,40.731384,-74.078627
NJ,Hunterdon,128349,1132.957,40.565283,-74.91197
NJ,Mercer,366513,592.819,40.282503,-74.703724
NJ,Middlesex,809858,836.118,40.439593,-74.407585
NJ,Monmouth,630380,1723.169,40.287056,-74.152446
NJ,Morris,492276,1247.403,40.858581,-74.547427
NJ,Ocean,576567,2370.877,39.86585,-74.263027
NJ,Passaic,501226,510.5,41.033763,-74.300308
NJ,Salem,66083,964.327,39.573828,-75.357356
NJ,Somerset,323444,789.576,40.565522,-74.61993
NJ,Sussex,149265,1387.567,41.137424,-74.691855
NJ,Union,536499,272.988,40.659871,-74.308696
NJ,Warren,108692,939.796,40.853524,-75.009542
NM,Bernalillo,662564,3023.002,35.054002,-106.669065
NM,Catron,3725,17946.468,33.901814,-108.392097
NM,Chaves,65645,15734.496,33.361605,-104.469837
NM,Cibola,27213,11763.029,34.93205,-108.000255
NM,Colfax,13750,9759.648,36.612963,-104.640126
NM,Curry,48376,3646.581,34.572984,-103.346055
NM,De Baca,2022,6044.726,34.351429,-104.401527
NM,Dona Ana,209233,9879.198,32.350912,-106.832182
NM,Eddy,53829,10871.532,32.457858,-104.306471
NM,Grant,29514,10275.911,32.732087,-108.381504
NM,Guadalupe,4687,7851.8,34.869782,-104.784968
NM,Harding,695,5506.023,35.863152,-103.829931
NM,Hidalgo,4894,8925.082,31.899658,-108.745729
NM,Lea,64727,11380.929,32.795687,-103.413271
NM,Lincoln,20497,12513.032,33.740941,-105.449083
NM,Los Alamos,17950,282.97,35.870047,-106.307968
NM,Luna,25095,7680.234,32.184482,-107.746639
NM,McKinley,71492,14129.101,35.573732,-108.255307
NM,Mora,4881,5008.056,35.982841,-104.921898
NM,Otero,63797,17165.151,32.588776,-105.781079
NM,Quay,9041,7463.265,35.107018,-103.548071
NM,Rio Arriba,40246,15270.957,36.509669,-106.693983
NM,Roosevelt,19846,6357.521,34.021457,-103.482725
NM,Sandoval,131561,9624.248,35.685073,-106.882618
NM,San Juan,130044,14344.45,36.511625,-108.324578
NM,San Miguel,29393,12265.299,35.476876,-104.803515
NM,Santa Fe,144170,4949.134,35.513722,-105.966441
NM,Sierra,11988,10971.771,33.119479,-107.188161
NM,Socorro,17866,17220.178,33.991614,-106.939003
NM,Taos,32937,5709.415,36.576529,-105.637987
NM,Torrance,16383,8665.41,34.634644,-105.846836
NM,Union,4549,9921.918,36.488085,-103.475723
NM,Valencia,76569,2766.87,34.71684,-106.806582
NY,Albany,304204,1381.246,42.588271,-73.974014
NY,Allegany,48946,2679.048,42.247894,-78.026176
NY,Bronx [10],1385108,148.867,40.848711,-73.852939
NY,Broome,200600,1853.174,42.161977,-75.830291
NY,Cattaraugus,80317,3425.222,42.244853,-78.681006
NY,Cayuga,80026,2236.898,43.008546,-76.574587
NY,Chautauqua,134905,3885.457,42.304216,-79.407595
NY,Chemung,88830,1063.913,42.155281,-76.747179
NY,Chenango,50477,2327.441,42.489732,-75.604905
NY,Clinton,82128,2894.381,44.75271,-73.705648
NY,Columbia,63096,1679.0,42.247729,-73.626805
NY,Cortland,49336,1298.927,42.593824,-76.076265
NY,Delaware,47980,3800.668,42.193987,-74.966728
NY,Dutchess,297488,2137.64,41.755009,-73.739951
NY,Erie,919040,3177.537,42.752759,-78.778192
NY,Essex,39370,4963.007,44.108971,-73.777573
NY,Franklin,51599,4396.43,44.594374,-74.31067
NY,Fulton,55531,1380.152,43.115609,-74.423678
NY,Genesee,60079,1282.84,43.00091,-78.192778
NY,Greene,49221,1704.341,42.286951,-74.149495
NY,Hamilton,4836,4682.19,43.657879,-74.502456
NY,Herkimer,64519,3776.09,43.461635,-74.894694
NY,Jefferson,116229,4810.181,43.995371,-76.053522
NY,Kings [10],2504700,251.015,40.635133,-73.950777
NY,Lewis,27087,3340.985,43.786397,-75.442617
NY,Livingston,65393,1658.263,42.727485,-77.76978
NY,Madison,73442,1712.715,42.910026,-75.663575
NY,Monroe,744344,3539.813,43.464475,-77.664656
NY,Montgomery,50219,1062.815,42.900891,-74.435358
NY,Nassau,1339532,1173.872,40.729687,-73.589384
NY,New York [10],1585873,86.999,40.776557,-73.970174
NY,Niagara,216469,2951.73,43.456731,-78.792143
NY,Oneida,234878,3257.314,43.242727,-75.434282
NY,Onondaga,467026,2086.541,43.00653,-76.196117
NY,Ontario,107931,1715.936,42.856695,-77.303277
NY,Orange,372813,2172.079,41.40241,-74.306252
NY,Orleans,42883,2117.113,43.502287,-78.229726
NY,Oswego,122109,3398.279,43.461443,-76.209258
NY,Otsego,62259,2630.786,42.629776,-75.028841
NY,Putnam,99710,637.787,41.427904,-73.743882
NY,Queens [10],2230722,461.555,40.658557,-73.837929
NY,Rensselaer,159429,1723.361,42.710421,-73.513845
NY,Richmond [10],468730,264.933,40.563855,-74.137063
NY,Rockland,311687,516.293,41.154785,-74.024772
NY,St. Lawrence,111944,7307.494,44.488113,-75.074311
NY,Saratoga,219607,2185.452,43.106135,-73.855387
NY,Schenectady,154727,542.308,42.817542,-74.043583
NY,Schoharie,32749,1622.181,42.591294,-74.438172
NY,Schuyler,18343,886.626,42.419776,-76.938604
NY,Seneca,35251,1011.232,42.782294,-76.827088
NY,Steuben,98990,3636.559,42.266725,-77.385525
NY,Suffolk,1493350,6146.386,40.943554,-72.692218
NY,Sullivan,77547,2581.5,41.720176,-74.76468
NY,Tioga,51125,1354.253,42.178057,-76.29745
NY,Tompkins,101564,1273.129,42.453281,-76.473712
NY,Ulster,182493,3006.355,41.947232,-74.265447
NY,Warren,65707,2412.845,43.555105,-73.838139
NY,Washington,63216,2190.839,43.312377,-73.439428
NY,Wayne,93772,3582.085,43.458758,-77.063164
NY,Westchester,949113,1294.982,41.15277,-73.745912
NY,Wyoming,42155,1544.377,42.701363,-78.228567
NY,Yates,25348,973.291,42.638237,-77.104324
NC,Alamance,151131,1125.965,36.041974,-79.399935
NC,Alexander,37198,682.851,35.920951,-81.177467
NC,Alleghany,11155,612.656,36.489356,-81.132299
NC,Anson,26948,1391.066,34.974996,-80.109959
NC,Ashe,27281,1111.801,36.436305,-81.49877
NC,Avery,17797,640.319,36.072894,-81.920363
NC,Beaufort,47759,2481.766,35.482313,-76.842014
NC,Bertie,21282,1919.826,36.06133,-76.962367
NC,Bladen,35190,2297.729,34.591949,-78.539513
NC,Brunswick,107431,2719.031,34.038708,-78.227688
NC,Buncombe,238318,1709.757,35.609371,-82.530426
NC,Burke,90912,1334.039,35.746182,-81.70618
NC,Cabarrus,178011,943.958,35.387845,-80.552868
NC,Caldwell,83029,1228.465,35.957857,-81.530076
NC,Camden,9980,803.45,36.342344,-76.162488
NC,Carteret,66469,3472.204,34.858313,-76.526967
NC,Caswell,23719,1109.167,36.393097,-79.332546
NC,Catawba,154358,1070.741,35.663182,-81.214151
NC,Chatham,63505,1838.455,35.704994,-79.251454
NC,Cherokee,27444,1208.81,35.136233,-84.061308
NC,Chowan,14793,604.239,36.127288,-76.60207
NC,Clay,10587,571.425,35.052997,-83.752264
NC,Cleveland,98078,1212.765,35.33463,-81.557115
NC,Columbus,58098,2469.916,34.260471,-78.636378
NC,Craven,103505,2005.068,35.118179,-77.082541
NC,Cumberland,319431,1705.163,35.050192,-78.828719
NC,Currituck,23547,1363.868,36.372174,-75.941224
NC,Dare,33920,4047.022,35.606269,-75.767536
NC,Davidson,162878,1468.57,35.795123,-80.206525
NC,Davie,41240,691.756,35.929356,-80.542542
NC,Duplin,58505,2128.127,34.934403,-77.933543
NC,Durham,267587,771.471,36.036589,-78.877919
NC,Edgecombe,56552,1312.217,35.917055,-77.602655
NC,Forsyth,350670,1068.878,36.131667,-80.257289
NC,Franklin,60619,1280.746,36.088241,-78.28309
NC,Gaston,206086,943.02,35.293344,-81.177256
NC,Gates,12197,895.326,36.442135,-76.702355
NC,Graham,8861,781.31,35.348111,-83.830909
NC,Granville,59916,1389.525,36.299884,-78.657634
NC,Greene,21362,689.971,35.481933,-77.681667
NC,Guilford,488406,1703.248,36.079065,-79.788665
NC,Halifax,54691,1893.746,36.251438,-77.644842
NC,Harnett,114678,1557.37,35.368635,-78.87161
NC,Haywood,59036,1436.472,35.557097,-82.972807
NC,Henderson,106740,971.844,35.336424,-82.479634
NC,Hertford,24669,933.313,36.363517,-76.981616
NC,Hoke,46952,1016.042,35.017233,-79.241964
NC,Hyde,5810,3688.209,35.408157,-76.153687
NC,Iredell,159437,1545.971,35.806356,-80.874545
NC,Jackson,40271,1280.865,35.286463,-83.130641
NC,Johnston,168878,2060.346,35.513405,-78.367267
NC,Jones,10153,1225.622,35.03216,-77.356443
NC,Lee,57866,670.918,35.476075,-79.17222
NC,Lenoir,59495,1043.296,35.238062,-77.639023
NC,Lincoln,78265,795.233,35.487825,-81.225176
NC,McDowell,44996,1155.126,35.682232,-82.048029
NC,Macon,33922,1345.985,35.152959,-83.421901
NC,Madison,20764,1169.216,35.86408,-82.712731
NC,Martin,24505,1195.302,35.841059,-77.112867
NC,Mecklenburg,919628,1413.899,35.246862,-80.833832
NC,Mitchell,15579,575.202,36.013102,-82.163554
NC,Montgomery,27798,1299.641,35.338071,-79.904196
NC,Moore,88247,1828.151,35.310163,-79.480664
NC,Nash,95840,1405.764,35.965945,-77.987555
NC,New Hanover,202667,850.043,34.177466,-77.871378
NC,Northampton,22099,1426.059,36.421774,-77.398352
NC,Onslow,177772,2346.304,34.76346,-77.503297
NC,Orange,133801,1039.692,36.062499,-79.119355
NC,Pamlico,13144,1467.876,35.147462,-76.665069
NC,Pasquotank,40661,749.638,36.265276,-76.260355
NC,Pender,52217,2415.904,34.512581,-77.888029
NC,Perquimans,13453,852.018,36.178261,-76.404269
NC,Person,39464,1046.559,36.386387,-78.965471
NC,Pitt,168148,1695.988,35.591065,-77.372404
NC,Polk,20510,617.803,35.278928,-82.167667
NC,Randolph,141752,2044.407,35.709915,-79.806215
NC,Richmond,46639,1242.982,35.001957,-79.747809
NC,Robeson,134168,2463.045,34.63921,-79.100881
NC,Rockingham,93643,1483.3,36.380927,-79.782889
NC,Rowan,138428,1356.441,35.639218,-80.525344
NC,Rutherford,67810,1465.544,35.402747,-81.919583
NC,Sampson,63431,2451.671,34.990575,-78.371382
NC,Scotland,36157,829.635,34.840023,-79.477337
NC,Stanly,60585,1048.529,35.310523,-80.254355
NC,Stokes,47401,1180.074,36.404195,-80.239271
NC,Surry,73673,1389.02,36.415416,-80.686463
NC,Swain,13981,1400.263,35.568849,-83.465614
NC,Transylvania,33090,985.524,35.210095,-82.816696
NC,Tyrrell,4407,1539.018,35.87042,-76.165345
NC,Union,201292,1656.366,34.991501,-80.530131
NC,Vance,45422,698.83,36.365481,-78.405434
NC,Wake,900993,2220.453,35.789846,-78.650624
NC,Warren,20972,1149.338,36.397979,-78.099924
NC,Washington,13228,1097.758,35.844589,-76.572334
NC,Watauga,51079,811.838,36.235371,-81.709919
NC,Wayne,122623,1442.241,35.362741,-78.004826
NC,Wilkes,69340,1960.415,36.209303,-81.165354
NC,Wilson,81234,967.963,35.704125,-77.918982
NC,Yadkin,38406,874.136,36.158765,-80.665164
NC,Yancey,17818,811.082,35.889504,-82.30398
ND,Adams,2343,2560.756,46.096815,-102.533198
ND,Barnes,11066,3919.7,46.94255,-98.070195
ND,Benson,6660,3728.28,48.071738,-99.361987
ND,Billings,783,2987.488,47.009283,-103.364924
ND,Bottineau,6429,4396.109,48.794412,-100.831257
ND,Bowman,3151,3022.655,46.107807,-103.506586
ND,Burke,1968,2923.9,48.786453,-102.520087
ND,Burleigh,81308,4320.87,46.971843,-100.462001
ND,Cass,149778,4578.839,46.927003,-97.252375
ND,Cavalier,3993,3910.778,48.768439,-98.46379
ND,Dickey,5289,2958.105,46.107756,-98.496518
ND,Divide,2071,3352.039,48.818142,-103.497653
ND,Dunn,3536,5392.466,47.35461,-102.612365
ND,Eddy,2385,1668.248,47.723436,-98.900475
ND,Emmons,3550,4027.489,46.284255,-100.237842
ND,Foster,3343,1675.265,47.464327,-98.872817
ND,Golden Valley,1680,2596.172,46.938924,-103.844612
ND,Grand Forks,66861,3728.295,47.926003,-97.450851
ND,Grant,2394,4314.714,46.357827,-101.639049
ND,Griggs,2420,1855.581,47.463463,-98.232444
ND,Hettinger,2477,2936.476,46.434939,-102.458385
ND,Kidder,2435,3711.226,46.935385,-99.742727
ND,LaMoure,4139,2980.792,46.464195,-98.526057
ND,Logan,1990,2619.101,46.469278,-99.504585
ND,McHenry,5395,4950.874,48.233842,-100.633267
ND,McIntosh,2809,2576.364,46.117034,-99.443041
ND,McKenzie,6360,7409.374,47.742475,-103.403215
ND,McLean,8962,6029.535,47.653055,-101.421794
ND,Mercer,8424,2881.339,47.303279,-101.820765
ND,Morton,27471,5038.684,46.713789,-101.279743
ND,Mountrail,7673,5028.64,48.210291,-102.364756
ND,Nelson,3126,2612.822,47.918667,-98.204428
ND,Oliver,1846,1893.77,47.118079,-101.33142
ND,Pembina,7413,2904.4,48.766896,-97.545405
ND,Pierce,4357,2803.233,48.238883,-99.966497
ND,Ramsey,11451,3369.353,48.265551,-98.737329
ND,Ransom,5457,2237.075,46.449276,-97.647554
ND,Renville,2470,2312.205,48.712782,-101.658152
ND,Richland,16321,3743.686,46.265219,-96.93796
ND,Rolette,13937,2432.882,48.768272,-99.840463
ND,Sargent,3829,2245.26,46.108206,-97.63003
ND,Sheridan,1321,2604.593,47.581373,-100.341499
ND,Sioux,4153,2922.141,46.109282,-101.047525
ND,Slope,727,3157.611,46.445834,-103.462462
ND,Stark,24199,3471.084,46.817031,-102.662026
ND,Steele,1975,1853.044,47.458288,-97.718895
ND,Stutsman,21100,5951.555,46.971103,-98.957592
ND,Towner,2246,2697.419,48.682183,-99.248158
ND,Traill,8121,2233.9,47.446215,-97.164754
ND,Walsh,11119,3351.691,48.376979,-97.72223
ND,Ward,61675,5324.911,48.216686,-101.540537
ND,Wells,4207,3342.049,47.580851,-99.671502
ND,Williams,22398,5562.968,48.345867,-103.4874
OH,Adams,28550,1518.375,38.841681,-83.474173
OH,Allen,106331,1053.734,40.771528,-84.106546
OH,Ashland,53139,1105.404,40.843274,-82.270121
OH,Ashtabula,101497,3542.85,41.906644,-80.745641
OH,Athens,64757,1316.856,39.333848,-82.046008
OH,Auglaize,45949,1040.93,40.561309,-84.224018
OH,Belmont,70400,1401.892,40.017682,-80.967727
OH,Brown,44846,1278.034,38.931377,-83.866772
OH,Butler,368130,1217.637,39.439915,-84.565397
OH,Carroll,28836,1033.225,40.579884,-81.090787
OH,Champaign,40097,1113.263,40.132759,-83.767543
OH,Clark,138333,1042.54,39.917032,-83.783676
OH,Clermont,197363,1190.789,39.052084,-84.149614
OH,Clinton,42040,1067.839,39.414041,-83.814542
OH,Columbiana,107841,1384.837,40.768462,-80.777231
OH,Coshocton,36901,1469.774,40.29672,-81.930112
OH,Crawford,43784,1042.98,40.848508,-82.924771
OH,Cuyahoga,1280122,3226.055,41.760392,-81.724217
OH,Darke,52959,1553.363,40.132176,-84.620438
OH,Defiance,39037,1072.745,41.321679,-84.486433
OH,Delaware,174214,1184.477,40.278941,-83.007462
OH,Erie,77079,1621.299,41.554006,-82.525897
OH,Fairfield,146156,1317.168,39.752935,-82.628276
OH,Fayette,29030,1054.164,39.553845,-83.459327
OH,Franklin,1163414,1407.68,39.969447,-83.008258
OH,Fulton,42698,1054.713,41.597264,-84.124267
OH,Gallia,30934,1220.393,38.817046,-82.301746
OH,Geauga,93389,1057.475,41.499322,-81.173505
OH,Greene,161573,1078.097,39.687479,-83.894894
OH,Guernsey,40087,1368.297,40.056665,-81.497875
OH,Hamilton,802374,1068.71,39.196927,-84.544187
OH,Hancock,74782,1382.17,41.000471,-83.666034
OH,Hardin,32058,1218.973,40.660415,-83.664077
OH,Harrison,15864,1063.882,40.292318,-81.091565
OH,Henry,28215,1087.149,41.335072,-84.065882
OH,Highland,43589,1444.675,39.184488,-83.603668
OH,Hocking,29380,1097.192,39.490343,-82.483445
OH,Holmes,42366,1098.101,40.565309,-81.929869
OH,Huron,59626,1281.581,41.14508,-82.594641
OH,Jackson,33225,1091.767,39.013477,-82.614142
OH,Jefferson,69709,1064.363,40.399188,-80.76141
OH,Knox,60921,1371.743,40.40362,-82.422393
OH,Lake,230041,2536.11,41.924116,-81.392643
OH,Lawrence,62450,1184.335,38.603866,-82.517186
OH,Licking,166492,1780.594,40.093609,-82.481251
OH,Logan,45858,1208.935,40.387553,-83.766343
OH,Lorain,301356,2391.418,41.438805,-82.179722
OH,Lucas,441815,1543.314,41.682321,-83.468867
OH,Madison,43435,1208.565,39.896607,-83.400885
OH,Mahoning,238823,1101.485,41.01088,-80.770396
OH,Marion,66501,1046.635,40.588208,-83.172927
OH,Medina,172332,1095.605,41.116051,-81.899566
OH,Meigs,23770,1121.47,39.089807,-82.028397
OH,Mercer,40814,1226.164,40.535333,-84.632059
OH,Miami,102506,1061.004,40.053326,-84.228414
OH,Monroe,14642,1184.811,39.725969,-81.090658
OH,Montgomery,535153,1202.621,39.755218,-84.290546
OH,Morgan,15054,1092.413,39.624946,-81.861699
OH,Morrow,34827,1054.698,40.525266,-82.797729
OH,Muskingum,86074,1741.982,39.966046,-81.943506
OH,Noble,14645,1047.833,39.767232,-81.452604
OH,Ottawa,41428,1515.306,41.544467,-83.009253
OH,Paulding,19614,1084.81,41.119141,-84.576967
OH,Perry,36058,1068.336,39.743187,-82.237953
OH,Pickaway,55698,1311.965,39.648947,-83.052827
OH,Pike,28709,1149.892,39.071365,-83.052921
OH,Portage,161419,1305.519,41.16864,-81.196932
OH,Preble,42270,1104.531,39.737906,-84.645358
OH,Putnam,34499,1254.33,41.024533,-84.129879
OH,Richland,124475,1295.194,40.774167,-82.542715
OH,Ross,78064,1794.926,39.323763,-83.059585
OH,Sandusky,60944,1081.857,41.355291,-83.142735
OH,Scioto,79499,1595.815,38.815019,-82.999028
OH,Seneca,56745,1431.728,41.120008,-83.127436
OH,Shelby,49423,1063.688,40.33668,-84.204143
OH,Stark,375586,1503.572,40.814131,-81.365667
OH,Summit,541781,1087.939,41.121851,-81.534936
OH,Trumbull,210312,1648.702,41.308936,-80.767656
OH,Tuscarawas,92582,1480.051,40.447441,-81.471157
OH,Union,52300,1131.493,40.295901,-83.367042
OH,Van Wert,28744,1062.997,40.85552,-84.585775
OH,Vinton,13435,1074.79,39.252014,-82.485961
OH,Warren,212693,1054.936,39.425652,-84.169906
OH,Washington,61778,1657.584,39.450684,-81.490653
OH,Wayne,114520,1442.148,40.829661,-81.887194
OH,Williams,37642,1095.803,41.564958,-84.584323
OH,Wood,125488,1607.063,41.360183,-83.622682
OH,Wyandot,22615,1055.559,40.840122,-83.313172
OK,Adair,22683,1494.56,35.8975,-94.651671
OK,Alfalfa,5642,2282.654,36.729703,-98.323445
OK,Atoka,14182,2563.861,34.374813,-96.034705
OK,Beaver,5636,4707.326,36.748334,-100.483056
OK,Beckham,22119,2341.192,35.273945,-99.671638
OK,Blaine,11943,2431.46,35.877782,-98.428934
